# 
# Header Description:
# 
# Version: v3.0.6.4 Platform: 13 Manufacturer: samsung Model: SM-G781B
# 
# Raw,utcTimeMillis,TimeNanos,LeapSecond,TimeUncertaintyNanos,FullBiasNanos,BiasNanos,BiasUncertaintyNanos,DriftNanosPerSecond,DriftUncertaintyNanosPerSecond,HardwareClockDiscontinuityCount,Svid,TimeOffsetNanos,State,ReceivedSvTimeNanos,ReceivedSvTimeUncertaintyNanos,Cn0DbHz,PseudorangeRateMetersPerSecond,PseudorangeRateUncertaintyMetersPerSecond,AccumulatedDeltaRangeState,AccumulatedDeltaRangeMeters,AccumulatedDeltaRangeUncertaintyMeters,CarrierFrequencyHz,CarrierCycles,CarrierPhase,CarrierPhaseUncertainty,MultipathIndicator,SnrInDb,ConstellationType,AgcDb,BasebandCn0DbHz,FullInterSignalBiasNanos,FullInterSignalBiasUncertaintyNanos,SatelliteInterSignalBiasNanos,SatelliteInterSignalBiasUncertaintyNanos,CodeType,ChipsetElapsedRealtimeNanos
# 
# UncalAccel,utcTimeMillis,elapsedRealtimeNanos,UncalAccelXMps2,UncalAccelYMps2,UncalAccelZMps2,BiasXMps2,BiasYMps2,BiasZMps2
# 
# Accel,utcTimeMillis,elapsedRealtimeNanos,AccelXMps2,AccelYMps2,AccelZMps2
# 
# UncalGyro,utcTimeMillis,elapsedRealtimeNanos,UncalGyroXRadPerSec,UncalGyroYRadPerSec,UncalGyroZRadPerSec,DriftXRadPerSec,DriftYRadPerSec,DriftZRadPerSec
# 
# Gyro,utcTimeMillis,elapsedRealtimeNanos,GyroXRadPerSec,GyroYRadPerSec,GyroZRadPerSec
# 
# UncalMag,utcTimeMillis,elapsedRealtimeNanos,UncalMagXMicroT,UncalMagYMicroT,UncalMagZMicroT,BiasXMicroT,BiasYMicroT,BiasZMicroT
# 
# Mag,utcTimeMillis,elapsedRealtimeNanos,MagXMicroT,MagYMicroT,MagZMicroT
# 
# OrientationDeg,utcTimeMillis,elapsedRealtimeNanos,yawDeg,rollDeg,pitchDeg
# 
# Fix,Provider,LatitudeDegrees,LongitudeDegrees,AltitudeMeters,SpeedMps,AccuracyMeters,BearingDegrees,UnixTimeMillis,SpeedAccuracyMps,BearingAccuracyDegrees,elapsedRealtimeNanos,VerticalAccuracyMeters,MockLocation,NumberOfUsedSignals,VerticalSpeedAccuracyMps,SolutionType
# 
# Nav,Svid,Type,Status,MessageId,Sub-messageId,Data(Bytes)
# 
# Status,UnixTimeMillis,SignalCount,SignalIndex,ConstellationType,Svid,CarrierFrequencyHz,Cn0DbHz,AzimuthDegrees,ElevationDegrees,UsedInFix,HasAlmanacData,HasEphemerisData,BasebandCn0DbHz
# 
# Agc,utcTimeMillis,TimeNanos,LeapSecond,TimeUncertaintyNanos,FullBiasNanos,BiasNanos,BiasUncertaintyNanos,DriftNanosPerSecond,DriftUncertaintyNanosPerSecond,HardwareClockDiscontinuityCount,AgcDb,CarrierFrequencyHz,ConstellationType
# 
Fix,FLP,33.8182652000,35.4908043000,187.8680419921875,0.0000000011844198,3.9,,1719425319871,0.086023256,,301562874450014,2.5,0,,,
Status,,38,0,1,3,1575420030,34.60,147.0,20.0,1,1,1,29.6
Status,,38,1,1,4,1575420030,34.80,74.0,37.0,1,1,1,29.8
Status,,38,2,1,6,1575420030,34.80,246.0,25.0,1,1,1,29.8
Status,,38,3,1,7,1575420030,34.80,274.0,73.0,1,1,1,29.8
Status,,38,4,1,9,1575420030,34.80,23.0,63.0,1,1,1,29.8
Status,,38,5,1,11,1575420030,34.60,289.0,20.0,1,1,1,29.6
Status,,38,6,1,14,1575420030,34.80,191.0,5.0,1,1,1,29.8
Status,,38,7,1,16,1575420030,30.60,0.0,0.0,0,1,1,25.6
Status,,38,8,1,20,1575420030,34.30,317.0,14.0,1,1,1,29.3
Status,,38,9,1,30,1575420030,34.40,243.0,39.0,1,1,1,29.4
Status,,38,10,3,1,1602562560,22.90,102.0,33.0,1,1,1,17.9
Status,,38,11,3,12,1601437440,0.00,56.0,66.0,0,1,1,0.0
Status,,38,12,3,19,1603687550,0.00,322.0,5.0,0,1,0,0.0
Status,,38,13,3,3,1604812540,0.00,323.0,26.0,0,1,0,0.0
Status,,38,14,5,2,1561097980,0.00,115.0,24.0,0,1,0,0.0
Status,,38,15,5,3,1561097980,0.00,98.0,2.0,0,1,0,0.0
Status,,38,16,5,5,1561097980,0.00,142.0,43.0,0,1,0,0.0
Status,,38,17,5,6,1561097980,0.00,53.0,14.0,0,1,0,0.0
Status,,38,18,5,7,1561097980,0.00,95.0,16.0,0,1,0,0.0
Status,,38,19,5,9,1561097980,0.00,47.0,30.0,0,1,0,0.0
Status,,38,20,5,10,1561097980,0.00,106.0,17.0,0,1,0,0.0
Status,,38,21,5,16,1561097980,0.00,53.0,13.0,0,1,0,0.0
Status,,38,22,5,19,1561097980,0.00,97.0,64.0,0,1,0,0.0
Status,,38,23,5,20,1561097980,0.00,120.0,17.0,0,1,0,0.0
Status,,38,24,5,21,1561097980,0.00,309.0,2.0,0,1,0,0.0
Status,,38,25,5,22,1561097980,0.00,323.0,51.0,0,1,0,0.0
Status,,38,26,5,36,1561097980,0.00,174.0,74.0,0,1,0,0.0
Status,,38,27,4,194,1575420030,26.10,0.0,0.0,0,1,0,21.1
Status,,38,28,6,4,1575420030,0.00,309.0,43.0,0,1,0,0.0
Status,,38,29,6,9,1575420030,0.00,285.0,1.0,0,1,0,0.0
Status,,38,30,6,10,1575420030,0.00,253.0,28.0,0,1,1,0.0
Status,,38,31,6,11,1575420030,0.00,284.0,25.0,0,1,0,0.0
Status,,38,32,6,12,1575420030,0.00,226.0,24.0,0,1,1,0.0
Status,,38,33,6,19,1575420030,0.00,53.0,54.0,0,1,0,0.0
Status,,38,34,6,21,1575420030,0.00,81.0,45.0,0,1,1,0.0
Status,,38,35,6,27,1575420030,0.00,36.0,9.0,0,1,1,0.0
Status,,38,36,6,31,1575420030,0.00,192.0,2.0,0,1,0,0.0
Status,,38,37,6,36,1575420030,0.00,327.0,3.0,0,1,0,0.0
Raw,1719425320438,292415575000000,18,,-1403168122863053873,-0.5538721084594727,32.44209074182436,-4.8292651553987795,9.514094960585682,76,3,0.0,16399,324538359211216,16,38.0,677.7279052734375,0.05939999967813492,16,0.0,1902.9177342976868,1575420030,,,,0,,1,-1.7,34.6,0.0,0.0,,,C,301549727735327
Raw,1719425320438,292415575000000,18,,-1403168122863053873,-0.5538721084594727,32.44209074182436,-4.8292651553987795,9.514094960585682,76,4,0.0,16399,324538364485011,16,38.2,321.0618591308594,0.03689999878406525,16,0.0,1902.9177342976868,1575420030,,,,0,,1,-1.7,34.800000000000004,0.0,0.0,,,C,301549727735327
Raw,1719425320438,292415575000000,18,,-1403168122863053873,-0.5538721084594727,32.44209074182436,-4.8292651553987795,9.514094960585682,76,6,0.0,16399,324538360690022,16,38.2,405.78851318359375,0.030899999663233757,16,0.0,1902.9177342976868,1575420030,,,,0,,1,-1.7,34.800000000000004,0.0,0.0,,,C,301549727735327
Raw,1719425320438,292415575000000,18,,-1403168122863053873,-0.5538721084594727,32.44209074182436,-4.8292651553987795,9.514094960585682,76,7,0.0,16399,324538368341675,16,38.2,-61.94582748413086,0.042900003492832184,16,0.0,1902.9177342976868,1575420030,,,,0,,1,-1.7,34.800000000000004,0.0,0.0,,,C,301549727735327
Raw,1719425320438,292415575000000,18,,-1403168122863053873,-0.5538721084594727,32.44209074182436,-4.8292651553987795,9.514094960585682,76,9,0.0,16399,324538369534528,16,38.2,-1.1030033826828003,0.04439999908208847,16,0.0,1902.9177342976868,1575420030,,,,0,,1,-1.7,34.800000000000004,0.0,0.0,,,C,301549727735327
Raw,1719425320438,292415575000000,18,,-1403168122863053873,-0.5538721084594727,32.44209074182436,-4.8292651553987795,9.514094960585682,76,11,0.0,16399,324538358671930,16,38.0,10.807778358459473,0.05790000408887863,16,0.0,1902.9177342976868,1575420030,,,,0,,1,-1.7,34.6,0.0,0.0,,,C,301549727735327
Raw,1719425320438,292415575000000,18,,-1403168122863053873,-0.5538721084594727,32.44209074182436,-4.8292651553987795,9.514094960585682,76,14,0.0,16399,324538354428097,16,38.2,-671.9871215820312,0.051899999380111694,16,0.0,1902.9177342976868,1575420030,,,,0,,1,-1.7,34.800000000000004,0.0,0.0,,,C,301549727735327
Raw,1719425320438,292415575000000,18,,-1403168122863053873,-0.5538721084594727,32.44209074182436,-4.8292651553987795,9.514094960585682,76,16,0.0,16399,324538249930227,24,34.0,603.9676513671875,0.10599999874830246,16,0.0,1902.9177342976868,1575420030,,,,0,,1,-1.7,30.6,0.0,0.0,,,C,301549727735327
Raw,1719425320438,292415575000000,18,,-1403168122863053873,-0.5538721084594727,32.44209074182436,-4.8292651553987795,9.514094960585682,76,20,0.0,16399,324538357455434,16,37.7,-624.768798828125,0.05640000104904175,16,0.0,1902.9177342976868,1575420030,,,,0,,1,-1.7,34.300000000000004,0.0,0.0,,,C,301549727735327
Raw,1719425320438,292415575000000,18,,-1403168122863053873,-0.5538721084594727,32.44209074182436,-4.8292651553987795,9.514094960585682,76,30,0.0,16399,324538363797418,16,37.8,-404.72393798828125,0.03540000319480896,16,0.0,1902.9177342976868,1575420030,,,,0,,1,-1.7,34.4,0.0,0.0,,,C,301549727735327
Raw,1719425320438,292415575000000,18,,-1403168122863053873,-0.5538721084594727,32.44209074182436,-4.8292651553987795,9.514094960585682,76,194,0.0,35,11,40,29.5,35.270931243896484,0.8614999651908875,16,0.0,0.0,1575420030,,,,0,,4,-1.7,26.1,0.0,0.0,,,C,301549727735327
Raw,1719425320438,292415575000000,18,,-1403168122863053873,-0.5538721084594727,32.44209074182436,-4.8292651553987795,9.514094960585682,76,100,0.0,49359,76120359836088,53,28.7,771.385498046875,0.9149999618530273,16,0.0,0.0,1602000000,,,,0,,3,-0.23,24.7,3756.966552734375,11.261722564697266,,,C,301549727735327
Raw,1719425320438,292415575000000,18,,-1403168122863053873,-0.5538721084594727,32.44209074182436,-4.8292651553987795,9.514094960585682,76,1,0.0,49359,76120366385993,70,26.9,364.94683837890625,1.1394999027252197,16,0.0,0.0,1602562560,,,,0,,3,-0.23,22.9,3756.966552734375,11.261722564697266,,,C,301549727735327
Fix,GPS,33.8182651700,35.4908043200,187.8673095703125,0.0,3.7900925,,1719425321000,0.086023256,,301563867698087,2.5,0,,,
Fix,FLP,33.8182652000,35.4908043000,187.8673095703125,0.00000000030057107,3.9,,1719425320864,0.086023256,,301563867698087,2.5,0,,,
Status,1719425321000,38,0,1,3,1575420030,35.60,147.0,20.0,1,1,1,30.6
Status,1719425321000,38,1,1,4,1575420030,36.10,74.0,37.0,1,1,1,31.1
Status,1719425321000,38,2,1,6,1575420030,36.00,246.0,25.0,1,1,1,31.0
Status,1719425321000,38,3,1,7,1575420030,35.90,274.0,73.0,1,1,1,30.9
Status,1719425321000,38,4,1,9,1575420030,35.70,23.0,63.0,1,1,1,30.7
Status,1719425321000,38,5,1,11,1575420030,35.90,289.0,20.0,1,1,1,30.9
Status,1719425321000,38,6,1,14,1575420030,35.80,191.0,5.0,1,1,1,30.8
Status,1719425321000,38,7,1,16,1575420030,30.90,0.0,0.0,0,1,1,25.9
Status,1719425321000,38,8,1,20,1575420030,36.10,317.0,14.0,1,1,1,31.1
Status,1719425321000,38,9,1,30,1575420030,35.60,243.0,39.0,1,1,1,30.6
Status,1719425321000,38,10,3,1,1602562560,23.90,102.0,33.0,1,1,1,18.9
Status,1719425321000,38,11,3,12,1601437440,0.00,56.0,66.0,0,1,1,0.0
Status,1719425321000,38,12,3,19,1603687550,0.00,322.0,5.0,0,1,0,0.0
Status,1719425321000,38,13,3,3,1604812540,0.00,323.0,26.0,0,1,0,0.0
Status,1719425321000,38,14,5,2,1561097980,0.00,115.0,24.0,0,1,0,0.0
Status,1719425321000,38,15,5,3,1561097980,0.00,98.0,2.0,0,1,0,0.0
Status,1719425321000,38,16,5,5,1561097980,0.00,142.0,43.0,0,1,0,0.0
Status,1719425321000,38,17,5,6,1561097980,0.00,53.0,14.0,0,1,0,0.0
Status,1719425321000,38,18,5,7,1561097980,0.00,95.0,16.0,0,1,0,0.0
Status,1719425321000,38,19,5,9,1561097980,0.00,47.0,30.0,0,1,0,0.0
Status,1719425321000,38,20,5,10,1561097980,0.00,106.0,17.0,0,1,0,0.0
Status,1719425321000,38,21,5,16,1561097980,0.00,53.0,13.0,0,1,0,0.0
Status,1719425321000,38,22,5,19,1561097980,0.00,97.0,64.0,0,1,0,0.0
Status,1719425321000,38,23,5,20,1561097980,0.00,120.0,17.0,0,1,0,0.0
Status,1719425321000,38,24,5,21,1561097980,0.00,309.0,2.0,0,1,0,0.0
Status,1719425321000,38,25,5,22,1561097980,0.00,323.0,51.0,0,1,0,0.0
Status,1719425321000,38,26,5,36,1561097980,0.00,174.0,74.0,0,1,0,0.0
Status,1719425321000,38,27,4,194,1575420030,26.40,0.0,0.0,0,1,0,21.4
Status,1719425321000,38,28,6,4,1575420030,0.00,309.0,43.0,0,1,0,0.0
Status,1719425321000,38,29,6,9,1575420030,0.00,285.0,1.0,0,1,0,0.0
Status,1719425321000,38,30,6,10,1575420030,0.00,253.0,28.0,0,1,1,0.0
Status,1719425321000,38,31,6,11,1575420030,0.00,284.0,25.0,0,1,0,0.0
Status,1719425321000,38,32,6,12,1575420030,0.00,226.0,24.0,0,1,1,0.0
Status,1719425321000,38,33,6,19,1575420030,0.00,53.0,54.0,0,1,0,0.0
Status,1719425321000,38,34,6,21,1575420030,0.00,81.0,45.0,0,1,1,0.0
Status,1719425321000,38,35,6,27,1575420030,0.00,36.0,9.0,0,1,1,0.0
Status,1719425321000,38,36,6,31,1575420030,0.00,192.0,2.0,0,1,0,0.0
Status,1719425321000,38,37,6,36,1575420030,0.00,327.0,3.0,0,1,0,0.0
Raw,1719425321438,292416575000000,18,,-1403168122863053883,-0.8170468807220459,31.24086288153194,-4.500257928060172,8.557506609136732,76,3,0.0,16399,324539359208960,14,39.0,677.1342163085938,0.05450000241398811,16,0.0,1902.9177342976868,1575420030,,,,0,,1,-0.59,35.6,0.0,0.0,,,C,301550726502930
Raw,1719425321438,292416575000000,18,,-1403168122863053883,-0.8170468807220459,31.24086288153194,-4.500257928060172,8.557506609136732,76,4,0.0,16399,324539364483923,13,39.5,320.52728271484375,0.030900001525878906,16,0.0,1902.9177342976868,1575420030,,,,0,,1,-0.59,36.1,0.0,0.0,,,C,301550726502930
Raw,1719425321438,292416575000000,18,,-1403168122863053883,-0.8170468807220459,31.24086288153194,-4.500257928060172,8.557506609136732,76,6,0.0,16399,324539360688662,13,39.4,405.25732421875,0.024900000542402267,16,0.0,1902.9177342976868,1575420030,,,,0,,1,-0.59,36.0,0.0,0.0,,,C,301550726502930
Raw,1719425321438,292416575000000,18,,-1403168122863053883,-0.8170468807220459,31.24086288153194,-4.500257928060172,8.557506609136732,76,7,0.0,16399,324539368341888,14,39.3,-62.484188079833984,0.03800000250339508,16,0.0,1902.9177342976868,1575420030,,,,0,,1,-0.59,35.9,0.0,0.0,,,C,301550726502930
Raw,1719425321438,292416575000000,18,,-1403168122863053883,-0.8170468807220459,31.24086288153194,-4.500257928060172,8.557506609136732,76,9,0.0,16399,324539369534543,14,39.1,-1.6574459075927734,0.039500001817941666,16,0.0,1902.9177342976868,1575420030,,,,0,,1,-0.59,35.7,0.0,0.0,,,C,301550726502930
Raw,1719425321438,292416575000000,18,,-1403168122863053883,-0.8170468807220459,31.24086288153194,-4.500257928060172,8.557506609136732,76,11,0.0,16399,324539358671907,14,39.3,10.309471130371094,0.05300000309944153,16,0.0,1902.9177342976868,1575420030,,,,0,,1,-0.59,35.9,0.0,0.0,,,C,301550726502930
Raw,1719425321438,292416575000000,18,,-1403168122863053883,-0.8170468807220459,31.24086288153194,-4.500257928060172,8.557506609136732,76,14,0.0,16399,324539354430346,14,39.2,-672.63427734375,0.04700000211596489,16,0.0,1902.9177342976868,1575420030,,,,0,,1,-0.59,35.800000000000004,0.0,0.0,,,C,301550726502930
Raw,1719425321438,292416575000000,18,,-1403168122863053883,-0.8170468807220459,31.24086288153194,-4.500257928060172,8.557506609136732,76,16,0.0,16399,324539249928224,24,34.3,603.4833984375,0.10599999874830246,16,0.0,1902.9177342976868,1575420030,,,,0,,1,-0.59,30.9,0.0,0.0,,,C,301550726502930
Raw,1719425321438,292416575000000,18,,-1403168122863053883,-0.8170468807220459,31.24086288153194,-4.500257928060172,8.557506609136732,76,20,0.0,16399,324539357457525,13,39.5,-625.3446655273438,0.05040000379085541,16,0.0,1902.9177342976868,1575420030,,,,0,,1,-0.59,36.1,0.0,0.0,,,C,301550726502930
Raw,1719425321438,292416575000000,18,,-1403168122863053883,-0.8170468807220459,31.24086288153194,-4.500257928060172,8.557506609136732,76,30,0.0,16399,324539363798789,14,39.0,-405.2396240234375,0.030500002205371857,16,0.0,1902.9177342976868,1575420030,,,,0,,1,-0.59,35.6,0.0,0.0,,,C,301550726502930
Raw,1719425321438,292416575000000,18,,-1403168122863053883,-0.8170468807220459,31.24086288153194,-4.500257928060172,8.557506609136732,76,194,0.0,35,16,40,29.8,34.56684494018555,0.8614999651908875,16,0.0,0.0,1575420030,,,,0,,4,-0.59,26.400000000000002,0.0,0.0,,,C,301550726502930
Raw,1719425321438,292416575000000,18,,-1403168122863053883,-0.8170468807220459,31.24086288153194,-4.500257928060172,8.557506609136732,76,98,0.0,49359,76121371587759,122,22.7,-464.7801513671875,4.493000030517578,16,0.0,0.0,1600875010,,,,0,,3,0.39,18.7,3756.966552734375,11.261722564697266,,,C,301550726502930
Raw,1719425321438,292416575000000,18,,-1403168122863053883,-0.8170468807220459,31.24086288153194,-4.500257928060172,8.557506609136732,76,100,0.0,49359,76121359833527,40,30.2,773.31298828125,0.7849999666213989,16,0.0,0.0,1602000000,,,,0,,3,0.39,26.2,3756.966552734375,11.261722564697266,,,C,301550726502930
Raw,1719425321438,292416575000000,18,,-1403168122863053883,-0.8170468807220459,31.24086288153194,-4.500257928060172,8.557506609136732,76,1,0.0,49359,76121366384989,61,27.9,366.3124694824219,1.005500078201294,16,0.0,0.0,1602562560,,,,0,,3,0.39,23.9,3756.966552734375,11.261722564697266,,,C,301550726502930
Fix,GPS,33.8182651500,35.4908043200,187.86749267578125,0.0,3.7900925,,1719425322000,0.086023256,,301564873129545,2.5,0,,,
Fix,FLP,33.8182652000,35.4908043000,187.86749267578125,0.00000000007502177,3.9,,1719425321871,0.086023256,,301564873129545,2.5,0,,,
Status,1719425322000,38,0,1,3,1575420030,34.40,147.0,20.0,1,1,1,29.4
Status,1719425322000,38,1,1,4,1575420030,34.50,74.0,37.0,1,1,1,29.5
Status,1719425322000,38,2,1,6,1575420030,34.50,246.0,25.0,1,1,1,29.5
Status,1719425322000,38,3,1,7,1575420030,34.20,274.0,73.0,1,1,1,29.2
Status,1719425322000,38,4,1,9,1575420030,34.60,23.0,63.0,1,1,1,29.6
Status,1719425322000,38,5,1,11,1575420030,33.90,289.0,20.0,1,1,1,28.9
Status,1719425322000,38,6,1,14,1575420030,34.30,191.0,5.0,1,1,1,29.3
Status,1719425322000,38,7,1,16,1575420030,26.60,0.0,0.0,0,1,1,21.6
Status,1719425322000,38,8,1,20,1575420030,34.10,317.0,14.0,1,1,1,29.1
Status,1719425322000,38,9,1,30,1575420030,34.30,243.0,39.0,1,1,1,29.3
Status,1719425322000,38,10,3,1,1602562560,25.20,102.0,33.0,1,1,1,20.2
Status,1719425322000,38,11,3,12,1601437440,0.00,56.0,66.0,0,1,1,0.0
Status,1719425322000,38,12,3,19,1603687550,0.00,322.0,5.0,0,1,0,0.0
Status,1719425322000,38,13,3,3,1604812540,0.00,323.0,26.0,0,1,0,0.0
Status,1719425322000,38,14,5,2,1561097980,0.00,115.0,24.0,0,1,0,0.0
Status,1719425322000,38,15,5,3,1561097980,0.00,98.0,2.0,0,1,0,0.0
Status,1719425322000,38,16,5,5,1561097980,0.00,142.0,43.0,0,1,0,0.0
Status,1719425322000,38,17,5,6,1561097980,0.00,53.0,14.0,0,1,0,0.0
Status,1719425322000,38,18,5,7,1561097980,0.00,95.0,16.0,0,1,0,0.0
Status,1719425322000,38,19,5,9,1561097980,0.00,47.0,30.0,0,1,0,0.0
Status,1719425322000,38,20,5,10,1561097980,0.00,106.0,17.0,0,1,0,0.0
Status,1719425322000,38,21,5,16,1561097980,0.00,53.0,13.0,0,1,0,0.0
Status,1719425322000,38,22,5,19,1561097980,0.00,97.0,64.0,0,1,0,0.0
Status,1719425322000,38,23,5,20,1561097980,0.00,120.0,17.0,0,1,0,0.0
Status,1719425322000,38,24,5,21,1561097980,0.00,309.0,2.0,0,1,0,0.0
Status,1719425322000,38,25,5,22,1561097980,0.00,323.0,51.0,0,1,0,0.0
Status,1719425322000,38,26,5,36,1561097980,0.00,174.0,74.0,0,1,0,0.0
Status,1719425322000,38,27,4,194,1575420030,26.20,0.0,0.0,0,1,0,21.2
Status,1719425322000,38,28,6,4,1575420030,0.00,309.0,43.0,0,1,0,0.0
Status,1719425322000,38,29,6,9,1575420030,0.00,285.0,1.0,0,1,0,0.0
Status,1719425322000,38,30,6,10,1575420030,0.00,253.0,28.0,0,1,1,0.0
Status,1719425322000,38,31,6,11,1575420030,0.00,284.0,25.0,0,1,0,0.0
Status,1719425322000,38,32,6,12,1575420030,0.00,226.0,24.0,0,1,1,0.0
Status,1719425322000,38,33,6,19,1575420030,0.00,53.0,54.0,0,1,0,0.0
Status,1719425322000,38,34,6,21,1575420030,0.00,81.0,45.0,0,1,1,0.0
Status,1719425322000,38,35,6,27,1575420030,0.00,36.0,9.0,0,1,1,0.0
Status,1719425322000,38,36,6,31,1575420030,0.00,192.0,2.0,0,1,0,0.0
Status,1719425322000,38,37,6,36,1575420030,0.00,327.0,3.0,0,1,0,0.0
Fix,GPS,33.8182651400,35.4908043000,187.8662109375,0.0,3.7900925,,1719425323000,0.086023256,,301565876405221,2.5,0,,,
Raw,1719425322438,292417575000000,18,,-1403168122863053896,-0.948695182800293,30.4455024888739,-6.564862469809376,9.515192445296789,76,3,0.0,16399,324540359206695,16,37.8,677.6649169921875,0.05939999967813492,16,0.0,1902.9177342976868,1575420030,,,,0,,1,0.84,34.4,0.0,0.0,,,C,301551726588086
Raw,1719425322438,292417575000000,18,,-1403168122863053896,-0.948695182800293,30.4455024888739,-6.564862469809376,9.515192445296789,76,4,0.0,16399,324540364482825,16,37.9,320.9945983886719,0.03689999878406525,16,0.0,1902.9177342976868,1575420030,,,,0,,1,0.84,34.5,0.0,0.0,,,C,301551726588086
Raw,1719425322438,292417575000000,18,,-1403168122863053896,-0.948695182800293,30.4455024888739,-6.564862469809376,9.515192445296789,76,6,0.0,16399,324540360687336,16,37.9,405.7781982421875,0.030899999663233757,16,0.0,1902.9177342976868,1575420030,,,,0,,1,0.84,34.5,0.0,0.0,,,C,301551726588086
Raw,1719425322438,292417575000000,18,,-1403168122863053896,-0.948695182800293,30.4455024888739,-6.564862469809376,9.515192445296789,76,7,0.0,16399,324540368342091,16,37.6,-61.94858169555664,0.042900003492832184,16,0.0,1902.9177342976868,1575420030,,,,0,,1,0.84,34.2,0.0,0.0,,,C,301551726588086
Raw,1719425322438,292417575000000,18,,-1403168122863053896,-0.948695182800293,30.4455024888739,-6.564862469809376,9.515192445296789,76,9,0.0,16399,324540369534558,16,38.0,-1.1334445476531982,0.04439999908208847,16,0.0,1902.9177342976868,1575420030,,,,0,,1,0.84,34.6,0.0,0.0,,,C,301551726588086
Raw,1719425322438,292417575000000,18,,-1403168122863053896,-0.948695182800293,30.4455024888739,-6.564862469809376,9.515192445296789,76,11,0.0,16399,324540358671852,17,37.3,10.906557083129883,0.059300001710653305,16,0.0,1902.9177342976868,1575420030,,,,0,,1,0.84,33.9,0.0,0.0,,,C,301551726588086
Raw,1719425322438,292417575000000,18,,-1403168122863053896,-0.948695182800293,30.4455024888739,-6.564862469809376,9.515192445296789,76,14,0.0,16399,324540354432601,16,37.7,-672.1604614257812,0.051899999380111694,16,0.0,1902.9177342976868,1575420030,,,,0,,1,0.84,34.300000000000004,0.0,0.0,,,C,301551726588086
Raw,1719425322438,292417575000000,18,,-1403168122863053896,-0.948695182800293,30.4455024888739,-6.564862469809376,9.515192445296789,76,16,0.0,16399,324540249926117,40,30.0,603.8208618164062,0.7999999523162842,16,0.0,0.0,1575420030,,,,0,,1,0.84,26.6,0.0,0.0,,,C,301551726588086
Raw,1719425322438,292417575000000,18,,-1403168122863053896,-0.948695182800293,30.4455024888739,-6.564862469809376,9.515192445296789,76,20,0.0,16399,324540357459653,16,37.5,-624.8139038085938,0.05640000104904175,16,0.0,1902.9177342976868,1575420030,,,,0,,1,0.84,34.1,0.0,0.0,,,C,301551726588086
Raw,1719425322438,292417575000000,18,,-1403168122863053896,-0.948695182800293,30.4455024888739,-6.564862469809376,9.515192445296789,76,30,0.0,16399,324540363800140,16,37.7,-404.717529296875,0.03540000319480896,16,0.0,1902.9177342976868,1575420030,,,,0,,1,0.84,34.300000000000004,0.0,0.0,,,C,301551726588086
Raw,1719425322438,292417575000000,18,,-1403168122863053896,-0.948695182800293,30.4455024888739,-6.564862469809376,9.515192445296789,76,194,0.0,35,4,40,29.6,35.061607360839844,0.8614999651908875,16,0.0,0.0,1575420030,,,,0,,4,0.84,26.200000000000003,0.0,0.0,,,C,301551726588086
Raw,1719425322438,292417575000000,18,,-1403168122863053896,-0.948695182800293,30.4455024888739,-6.564862469809376,9.515192445296789,76,100,0.0,49359,76122359830694,46,29.1,773.0790405273438,0.8449999690055847,16,0.0,0.0,1602000000,,,,0,,3,1.79,25.1,3756.966552734375,11.261722564697266,,,C,301551726588086
Raw,1719425322438,292417575000000,18,,-1403168122863053896,-0.948695182800293,30.4455024888739,-6.564862469809376,9.515192445296789,76,1,0.0,49359,76122366383623,46,29.2,366.36859130859375,0.8554999828338623,16,0.0,0.0,1602562560,,,,0,,3,1.79,25.2,3756.966552734375,11.261722564697266,,,C,301551726588086
Fix,FLP,33.8182651000,35.4908043000,187.8662109375,0.006276762,3.9,,1719425322873,0.086023256,,301565876405221,2.5,0,,,
Status,1719425323000,38,0,1,3,1575420030,36.30,147.0,20.0,1,1,1,31.3
Status,1719425323000,38,1,1,4,1575420030,36.20,74.0,37.0,1,1,1,31.2
Status,1719425323000,38,2,1,6,1575420030,36.30,246.0,25.0,1,1,1,31.3
Status,1719425323000,38,3,1,7,1575420030,35.80,274.0,73.0,1,1,1,30.8
Status,1719425323000,38,4,1,9,1575420030,36.00,23.0,63.0,1,1,1,31.0
Status,1719425323000,38,5,1,11,1575420030,35.80,289.0,20.0,1,1,1,30.8
Status,1719425323000,38,6,1,14,1575420030,36.10,191.0,5.0,1,1,1,31.1
Status,1719425323000,38,7,1,16,1575420030,28.80,0.0,0.0,0,1,1,23.8
Status,1719425323000,38,8,1,20,1575420030,35.90,317.0,14.0,1,1,1,30.9
Status,1719425323000,38,9,1,30,1575420030,36.10,243.0,39.0,1,1,1,31.1
Status,1719425323000,38,10,3,1,1602562560,23.30,102.0,33.0,1,1,1,18.3
Status,1719425323000,38,11,3,12,1601437440,0.00,56.0,66.0,0,1,1,0.0
Status,1719425323000,38,12,3,19,1603687550,0.00,322.0,5.0,0,1,0,0.0
Status,1719425323000,38,13,3,3,1604812540,0.00,323.0,26.0,0,1,0,0.0
Status,1719425323000,38,14,5,2,1561097980,0.00,115.0,24.0,0,1,0,0.0
Status,1719425323000,38,15,5,3,1561097980,0.00,98.0,2.0,0,1,0,0.0
Status,1719425323000,38,16,5,5,1561097980,0.00,142.0,43.0,0,1,0,0.0
Status,1719425323000,38,17,5,6,1561097980,0.00,53.0,14.0,0,1,0,0.0
Status,1719425323000,38,18,5,7,1561097980,0.00,95.0,16.0,0,1,0,0.0
Status,1719425323000,38,19,5,9,1561097980,0.00,47.0,30.0,0,1,0,0.0
Status,1719425323000,38,20,5,10,1561097980,0.00,106.0,17.0,0,1,0,0.0
Status,1719425323000,38,21,5,16,1561097980,0.00,53.0,13.0,0,1,0,0.0
Status,1719425323000,38,22,5,19,1561097980,0.00,97.0,64.0,0,1,0,0.0
Status,1719425323000,38,23,5,20,1561097980,0.00,120.0,17.0,0,1,0,0.0
Status,1719425323000,38,24,5,21,1561097980,0.00,309.0,2.0,0,1,0,0.0
Status,1719425323000,38,25,5,22,1561097980,0.00,323.0,51.0,0,1,0,0.0
Status,1719425323000,38,26,5,36,1561097980,0.00,174.0,74.0,0,1,0,0.0
Status,1719425323000,38,27,4,194,1575420030,26.50,0.0,0.0,0,1,0,21.5
Status,1719425323000,38,28,6,4,1575420030,0.00,309.0,43.0,0,1,0,0.0
Status,1719425323000,38,29,6,9,1575420030,0.00,285.0,1.0,0,1,0,0.0
Status,1719425323000,38,30,6,10,1575420030,0.00,253.0,28.0,0,1,1,0.0
Status,1719425323000,38,31,6,11,1575420030,0.00,284.0,25.0,0,1,0,0.0
Status,1719425323000,38,32,6,12,1575420030,0.00,226.0,24.0,0,1,1,0.0
Status,1719425323000,38,33,6,19,1575420030,0.00,53.0,54.0,0,1,0,0.0
Status,1719425323000,38,34,6,21,1575420030,0.00,81.0,45.0,0,1,1,0.0
Status,1719425323000,38,35,6,27,1575420030,0.00,36.0,9.0,0,1,1,0.0
Status,1719425323000,38,36,6,31,1575420030,0.00,192.0,2.0,0,1,0,0.0
Status,1719425323000,38,37,6,36,1575420030,0.00,327.0,3.0,0,1,0,0.0
Raw,1719425323438,292418575000000,18,,-1403168122863053906,-0.8132638931274414,33.65632801433094,-4.952059777193059,11.487902126820806,76,3,0.0,16399,324541359204402,13,39.7,677.5878295898438,0.05340000241994858,16,0.0,1902.9177342976868,1575420030,,,,0,,1,-0.3,36.300000000000004,0.0,0.0,,,C,301552720972149
Raw,1719425323438,292418575000000,18,,-1403168122863053906,-0.8132638931274414,33.65632801433094,-4.952059777193059,11.487902126820806,76,4,0.0,16399,324541364481759,13,39.6,320.92254638671875,0.030900001525878906,16,0.0,1902.9177342976868,1575420030,,,,0,,1,-0.3,36.2,0.0,0.0,,,C,301552720972149
Raw,1719425323438,292418575000000,18,,-1403168122863053906,-0.8132638931274414,33.65632801433094,-4.952059777193059,11.487902126820806,76,6,0.0,16399,324541360685950,13,39.7,405.7489318847656,0.024900000542402267,16,0.0,1902.9177342976868,1575420030,,,,0,,1,-0.3,36.300000000000004,0.0,0.0,,,C,301552720972149
Raw,1719425323438,292418575000000,18,,-1403168122863053906,-0.8132638931274414,33.65632801433094,-4.952059777193059,11.487902126820806,76,7,0.0,16399,324541368342275,14,39.2,-62.006553649902344,0.03800000250339508,16,0.0,1902.9177342976868,1575420030,,,,0,,1,-0.3,35.800000000000004,0.0,0.0,,,C,301552720972149
Raw,1719425323438,292418575000000,18,,-1403168122863053906,-0.8132638931274414,33.65632801433094,-4.952059777193059,11.487902126820806,76,9,0.0,16399,324541369534537,13,39.4,-1.1885221004486084,0.03840000182390213,16,0.0,1902.9177342976868,1575420030,,,,0,,1,-0.3,36.0,0.0,0.0,,,C,301552720972149
Raw,1719425323438,292418575000000,18,,-1403168122863053906,-0.8132638931274414,33.65632801433094,-4.952059777193059,11.487902126820806,76,11,0.0,16399,324541358671811,14,39.2,10.918328285217285,0.05300000309944153,16,0.0,1902.9177342976868,1575420030,,,,0,,1,-0.3,35.800000000000004,0.0,0.0,,,C,301552720972149
Raw,1719425323438,292418575000000,18,,-1403168122863053906,-0.8132638931274414,33.65632801433094,-4.952059777193059,11.487902126820806,76,14,0.0,16399,324541354434820,13,39.5,-672.2781982421875,0.045900002121925354,16,0.0,1902.9177342976868,1575420030,,,,0,,1,-0.3,36.1,0.0,0.0,,,C,301552720972149
Raw,1719425323438,292418575000000,18,,-1403168122863053906,-0.8132638931274414,33.65632801433094,-4.952059777193059,11.487902126820806,76,16,0.0,16399,324541249924149,31,32.2,604.2490234375,0.6799999475479126,16,0.0,0.0,1575420030,,,,0,,1,-0.3,28.800000000000004,0.0,0.0,,,C,301552720972149
Raw,1719425323438,292418575000000,18,,-1403168122863053906,-0.8132638931274414,33.65632801433094,-4.952059777193059,11.487902126820806,76,20,0.0,16399,324541357461702,14,39.3,-624.8595581054688,0.05150000378489494,16,0.0,1902.9177342976868,1575420030,,,,0,,1,-0.3,35.9,0.0,0.0,,,C,301552720972149
Raw,1719425323438,292418575000000,18,,-1403168122863053906,-0.8132638931274414,33.65632801433094,-4.952059777193059,11.487902126820806,76,30,0.0,16399,324541363801497,13,39.5,-404.7751159667969,0.02940000221133232,16,0.0,1902.9177342976868,1575420030,,,,0,,1,-0.3,36.1,0.0,0.0,,,C,301552720972149
Raw,1719425323438,292418575000000,18,,-1403168122863053906,-0.8132638931274414,33.65632801433094,-4.952059777193059,11.487902126820806,76,194,0.0,35,18,40,29.9,34.8427734375,0.8614999651908875,16,0.0,0.0,1575420030,,,,0,,4,-0.3,26.5,0.0,0.0,,,C,301552720972149
Raw,1719425323438,292418575000000,18,,-1403168122863053906,-0.8132638931274414,33.65632801433094,-4.952059777193059,11.487902126820806,76,98,0.0,49359,76123371591041,92,24.7,-464.3026123046875,2.0230000019073486,16,0.0,0.0,1600875010,,,,0,,3,0.75,20.7,3756.966552734375,11.261722564697266,,,C,301552720972149
Raw,1719425323438,292418575000000,18,,-1403168122863053906,-0.8132638931274414,33.65632801433094,-4.952059777193059,11.487902126820806,76,100,0.0,49359,76123359828183,61,27.2,772.648681640625,0.9950000047683716,16,0.0,0.0,1602000000,,,,0,,3,0.75,23.2,3756.966552734375,11.261722564697266,,,C,301552720972149
Raw,1719425323438,292418575000000,18,,-1403168122863053906,-0.8132638931274414,33.65632801433094,-4.952059777193059,11.487902126820806,76,1,0.0,49359,76123366382355,61,27.3,367.6313171386719,1.005500078201294,16,0.0,0.0,1602562560,,,,0,,3,0.75,23.3,3756.966552734375,11.261722564697266,,,C,301552720972149
Fix,GPS,33.8182651300,35.4908042700,187.865966796875,0.0,3.7900925,,1719425324000,0.086023256,,301566875384023,2.5,0,,,
Fix,FLP,33.8182651000,35.4908043000,187.865966796875,0.0031178351,3.9,,1719425323872,0.086023256,,301566875384023,2.5,0,,,
Fix,NLP,32.0762030000,35.2661771000,697.5000610351562,,116.1,,1719425322423,,,301565426000000,26.6256,0,,,
Status,1719425324000,38,0,1,3,1575420030,33.70,147.0,20.0,1,1,1,28.7
Status,1719425324000,38,1,1,4,1575420030,33.40,74.0,37.0,1,1,1,28.4
Status,1719425324000,38,2,1,6,1575420030,33.80,246.0,25.0,1,1,1,28.8
Status,1719425324000,38,3,1,7,1575420030,33.50,274.0,73.0,1,1,1,28.5
Status,1719425324000,38,4,1,9,1575420030,33.30,23.0,63.0,1,1,1,28.3
Status,1719425324000,38,5,1,11,1575420030,33.70,289.0,20.0,1,1,1,28.7
Status,1719425324000,38,6,1,14,1575420030,33.70,191.0,5.0,1,1,1,28.7
Status,1719425324000,38,7,1,16,1575420030,29.00,0.0,0.0,0,1,1,24.0
Status,1719425324000,38,8,1,20,1575420030,33.70,317.0,14.0,1,1,1,28.7
Status,1719425324000,38,9,1,30,1575420030,33.30,243.0,39.0,1,1,1,28.3
Status,1719425324000,38,10,3,1,1602562560,25.90,102.0,33.0,1,1,1,20.9
Status,1719425324000,38,11,3,12,1601437440,0.00,56.0,66.0,0,1,1,0.0
Status,1719425324000,38,12,3,19,1603687550,0.00,322.0,5.0,0,1,0,0.0
Status,1719425324000,38,13,3,3,1604812540,0.00,323.0,26.0,0,1,0,0.0
Status,1719425324000,38,14,5,2,1561097980,0.00,115.0,24.0,0,1,0,0.0
Status,1719425324000,38,15,5,3,1561097980,0.00,98.0,2.0,0,1,0,0.0
Status,1719425324000,38,16,5,5,1561097980,0.00,142.0,43.0,0,1,0,0.0
Status,1719425324000,38,17,5,6,1561097980,0.00,53.0,14.0,0,1,0,0.0
Status,1719425324000,38,18,5,7,1561097980,0.00,95.0,16.0,0,1,0,0.0
Status,1719425324000,38,19,5,9,1561097980,0.00,47.0,30.0,0,1,0,0.0
Status,1719425324000,38,20,5,10,1561097980,0.00,106.0,17.0,0,1,0,0.0
Status,1719425324000,38,21,5,16,1561097980,0.00,53.0,13.0,0,1,0,0.0
Status,1719425324000,38,22,5,19,1561097980,0.00,97.0,64.0,0,1,0,0.0
Status,1719425324000,38,23,5,20,1561097980,0.00,120.0,17.0,0,1,0,0.0
Status,1719425324000,38,24,5,21,1561097980,0.00,309.0,2.0,0,1,0,0.0
Status,1719425324000,38,25,5,22,1561097980,0.00,323.0,51.0,0,1,0,0.0
Status,1719425324000,38,26,5,36,1561097980,0.00,174.0,74.0,0,1,0,0.0
Status,1719425324000,38,27,4,194,1575420030,27.30,0.0,0.0,0,1,0,22.3
Status,1719425324000,38,28,6,4,1575420030,0.00,309.0,43.0,0,1,0,0.0
Status,1719425324000,38,29,6,9,1575420030,0.00,285.0,1.0,0,1,0,0.0
Status,1719425324000,38,30,6,10,1575420030,0.00,253.0,28.0,0,1,1,0.0
Status,1719425324000,38,31,6,11,1575420030,0.00,284.0,25.0,0,1,0,0.0
Status,1719425324000,38,32,6,12,1575420030,0.00,226.0,24.0,0,1,1,0.0
Status,1719425324000,38,33,6,19,1575420030,0.00,53.0,54.0,0,1,0,0.0
Status,1719425324000,38,34,6,21,1575420030,0.00,81.0,45.0,0,1,1,0.0
Status,1719425324000,38,35,6,27,1575420030,0.00,36.0,9.0,0,1,1,0.0
Status,1719425324000,38,36,6,31,1575420030,0.00,192.0,2.0,0,1,0,0.0
Status,1719425324000,38,37,6,36,1575420030,0.00,327.0,3.0,0,1,0,0.0
Raw,1719425324438,292419575000000,18,,-1403168122863053906,-0.5040647983551025,32.08582347724587,-5.2376014406597875,10.493598474691035,76,3,0.0,16399,324542359202188,17,37.1,677.640869140625,0.06080000102519989,16,0.0,1902.9177342976868,1575420030,,,,0,,1,-1.61,33.7,0.0,0.0,,,C,301553732582513
Raw,1719425324438,292419575000000,18,,-1403168122863053906,-0.5040647983551025,32.08582347724587,-5.2376014406597875,10.493598474691035,76,4,0.0,16399,324542364480731,17,36.8,321.02362060546875,0.03830000013113022,16,0.0,1902.9177342976868,1575420030,,,,0,,1,-1.61,33.4,0.0,0.0,,,C,301553732582513
Raw,1719425324438,292419575000000,18,,-1403168122863053906,-0.5040647983551025,32.08582347724587,-5.2376014406597875,10.493598474691035,76,6,0.0,16399,324542360684627,17,37.2,405.85992431640625,0.03229999914765358,16,0.0,1902.9177342976868,1575420030,,,,0,,1,-1.61,33.800000000000004,0.0,0.0,,,C,301553732582513
Raw,1719425324438,292419575000000,18,,-1403168122863053906,-0.5040647983551025,32.08582347724587,-5.2376014406597875,10.493598474691035,76,7,0.0,16399,324542368342485,17,36.9,-61.889530181884766,0.04430000111460686,16,0.0,1902.9177342976868,1575420030,,,,0,,1,-1.61,33.5,0.0,0.0,,,C,301553732582513
Raw,1719425324438,292419575000000,18,,-1403168122863053906,-0.5040647983551025,32.08582347724587,-5.2376014406597875,10.493598474691035,76,9,0.0,16399,324542369534579,17,36.7,-1.1116664409637451,0.04580000042915344,16,0.0,1902.9177342976868,1575420030,,,,0,,1,-1.61,33.300000000000004,0.0,0.0,,,C,301553732582513
Raw,1719425324438,292419575000000,18,,-1403168122863053906,-0.5040647983551025,32.08582347724587,-5.2376014406597875,10.493598474691035,76,11,0.0,16399,324542358671789,17,37.1,11.04615592956543,0.059300001710653305,16,0.0,1902.9177342976868,1575420030,,,,0,,1,-1.61,33.7,0.0,0.0,,,C,301553732582513
Raw,1719425324438,292419575000000,18,,-1403168122863053906,-0.5040647983551025,32.08582347724587,-5.2376014406597875,10.493598474691035,76,14,0.0,16399,324542354437087,17,37.1,-672.2932739257812,0.053300000727176666,16,0.0,1902.9177342976868,1575420030,,,,0,,1,-1.61,33.7,0.0,0.0,,,C,301553732582513
Raw,1719425324438,292419575000000,18,,-1403168122863053906,-0.5040647983551025,32.08582347724587,-5.2376014406597875,10.493598474691035,76,16,0.0,16399,324542249922201,27,32.4,604.258544921875,0.6799999475479126,16,0.0,0.0,1575420030,,,,0,,1,-1.61,29.0,0.0,0.0,,,C,301553732582513
Raw,1719425324438,292419575000000,18,,-1403168122863053906,-0.5040647983551025,32.08582347724587,-5.2376014406597875,10.493598474691035,76,20,0.0,16399,324542357463803,17,37.1,-624.8016357421875,0.05780000239610672,16,0.0,1902.9177342976868,1575420030,,,,0,,1,-1.61,33.7,0.0,0.0,,,C,301553732582513
Raw,1719425324438,292419575000000,18,,-1403168122863053906,-0.5040647983551025,32.08582347724587,-5.2376014406597875,10.493598474691035,76,30,0.0,16399,324542363802880,17,36.7,-404.675048828125,0.03680000081658363,16,0.0,1902.9177342976868,1575420030,,,,0,,1,-1.61,33.300000000000004,0.0,0.0,,,C,301553732582513
Raw,1719425324438,292419575000000,18,,-1403168122863053906,-0.5040647983551025,32.08582347724587,-5.2376014406597875,10.493598474691035,76,194,0.0,35,18,35,30.7,35.8513298034668,0.8014999628067017,16,0.0,0.0,1575420030,,,,0,,4,-1.61,27.3,0.0,0.0,,,C,301553732582513
Raw,1719425324438,292419575000000,18,,-1403168122863053906,-0.5040647983551025,32.08582347724587,-5.2376014406597875,10.493598474691035,76,100,0.0,49359,76124359825598,53,28.4,772.0591430664062,0.9149999618530273,16,0.0,0.0,1602000000,,,,0,,3,-0.49,24.4,3756.966552734375,11.261722564697266,,,C,301553732582513
Raw,1719425324438,292419575000000,18,,-1403168122863053906,-0.5040647983551025,32.08582347724587,-5.2376014406597875,10.493598474691035,76,1,0.0,49359,76124366381245,46,29.9,366.406005859375,0.8554999828338623,16,0.0,0.0,1602562560,,,,0,,3,-0.49,25.9,3756.966552734375,11.261722564697266,,,C,301553732582513
Fix,GPS,33.8182651200,35.4908042700,187.865234375,0.0,3.7900925,,1719425325000,0.086023256,,301567870214596,2.5,0,,,
Fix,FLP,33.8182651000,35.4908043000,187.865234375,0.0011623931,3.9,,1719425324867,0.086023256,,301567870214596,2.5,0,,,
Status,1719425325000,38,0,1,3,1575420030,33.20,147.0,20.0,1,1,1,28.2
Status,1719425325000,38,1,1,4,1575420030,33.60,74.0,37.0,1,1,1,28.6
Status,1719425325000,38,2,1,6,1575420030,33.40,246.0,25.0,1,1,1,28.4
Status,1719425325000,38,3,1,7,1575420030,33.30,274.0,73.0,1,1,1,28.3
Status,1719425325000,38,4,1,9,1575420030,33.40,23.0,63.0,1,1,1,28.4
Status,1719425325000,38,5,1,11,1575420030,32.80,289.0,20.0,1,1,1,27.8
Status,1719425325000,38,6,1,14,1575420030,33.30,191.0,5.0,1,1,1,28.3
Status,1719425325000,38,7,1,16,1575420030,29.80,0.0,0.0,0,1,1,24.8
Status,1719425325000,38,8,1,20,1575420030,33.00,317.0,14.0,1,1,1,28.0
Status,1719425325000,38,9,1,30,1575420030,33.30,243.0,39.0,1,1,1,28.3
Status,1719425325000,38,10,3,1,1602562560,25.70,102.0,33.0,1,1,1,20.7
Status,1719425325000,38,11,3,12,1601437440,0.00,56.0,66.0,0,1,1,0.0
Status,1719425325000,38,12,3,19,1603687550,0.00,322.0,5.0,0,1,0,0.0
Status,1719425325000,38,13,3,3,1604812540,0.00,323.0,26.0,0,1,0,0.0
Status,1719425325000,38,14,5,2,1561097980,0.00,115.0,24.0,0,1,0,0.0
Status,1719425325000,38,15,5,3,1561097980,0.00,98.0,2.0,0,1,0,0.0
Status,1719425325000,38,16,5,5,1561097980,0.00,142.0,43.0,0,1,0,0.0
Status,1719425325000,38,17,5,6,1561097980,0.00,53.0,14.0,0,1,0,0.0
Status,1719425325000,38,18,5,7,1561097980,0.00,95.0,16.0,0,1,0,0.0
Status,1719425325000,38,19,5,9,1561097980,0.00,47.0,30.0,0,1,0,0.0
Status,1719425325000,38,20,5,10,1561097980,0.00,106.0,17.0,0,1,0,0.0
Status,1719425325000,38,21,5,16,1561097980,0.00,53.0,13.0,0,1,0,0.0
Status,1719425325000,38,22,5,19,1561097980,0.00,97.0,64.0,0,1,0,0.0
Status,1719425325000,38,23,5,20,1561097980,0.00,120.0,17.0,0,1,0,0.0
Status,1719425325000,38,24,5,21,1561097980,0.00,309.0,2.0,0,1,0,0.0
Status,1719425325000,38,25,5,22,1561097980,0.00,323.0,51.0,0,1,0,0.0
Status,1719425325000,38,26,5,36,1561097980,0.00,174.0,74.0,0,1,0,0.0
Status,1719425325000,38,27,4,194,1575420030,27.80,0.0,0.0,0,1,0,22.8
Status,1719425325000,38,28,6,4,1575420030,0.00,309.0,43.0,0,1,0,0.0
Status,1719425325000,38,29,6,9,1575420030,0.00,285.0,1.0,0,1,0,0.0
Status,1719425325000,38,30,6,10,1575420030,0.00,253.0,28.0,0,1,1,0.0
Status,1719425325000,38,31,6,11,1575420030,0.00,284.0,25.0,0,1,0,0.0
Status,1719425325000,38,32,6,12,1575420030,0.00,226.0,24.0,0,1,1,0.0
Status,1719425325000,38,33,6,19,1575420030,0.00,53.0,54.0,0,1,0,0.0
Status,1719425325000,38,34,6,21,1575420030,0.00,81.0,45.0,0,1,1,0.0
Status,1719425325000,38,35,6,27,1575420030,0.00,36.0,9.0,0,1,1,0.0
Status,1719425325000,38,36,6,31,1575420030,0.00,192.0,2.0,0,1,0,0.0
Status,1719425325000,38,37,6,36,1575420030,0.00,327.0,3.0,0,1,0,0.0
Raw,1719425325438,292420575000000,18,,-1403168122863053920,-0.2727377414703369,31.218693038681522,-5.194825383486844,9.539652834615278,76,3,0.0,16399,324543359199924,17,36.6,677.8790893554688,0.06080000102519989,16,0.0,1902.9177342976868,1575420030,,,,0,,1,-1.48,33.2,0.0,0.0,,,C,301554730769336
Raw,1719425325438,292420575000000,18,,-1403168122863053920,-0.2727377414703369,31.218693038681522,-5.194825383486844,9.539652834615278,76,4,0.0,16399,324543364479648,17,37.0,321.2409973144531,0.03830000013113022,16,0.0,1902.9177342976868,1575420030,,,,0,,1,-1.48,33.6,0.0,0.0,,,C,301554730769336
Raw,1719425325438,292420575000000,18,,-1403168122863053920,-0.2727377414703369,31.218693038681522,-5.194825383486844,9.539652834615278,76,6,0.0,16399,324543360683267,17,36.8,406.11981201171875,0.03229999914765358,16,0.0,1902.9177342976868,1575420030,,,,0,,1,-1.48,33.4,0.0,0.0,,,C,301554730769336
Raw,1719425325438,292420575000000,18,,-1403168122863053920,-0.2727377414703369,31.218693038681522,-5.194825383486844,9.539652834615278,76,7,0.0,16399,324543368342748,17,36.7,-61.63645553588867,0.04430000111460686,16,0.0,1902.9177342976868,1575420030,,,,0,,1,-1.48,33.300000000000004,0.0,0.0,,,C,301554730769336
Raw,1719425325438,292420575000000,18,,-1403168122863053920,-0.2727377414703369,31.218693038681522,-5.194825383486844,9.539652834615278,76,9,0.0,16399,324543369534586,17,36.8,-0.8808090686798096,0.04580000042915344,16,0.0,1902.9177342976868,1575420030,,,,0,,1,-1.48,33.4,0.0,0.0,,,C,301554730769336
Raw,1719425325438,292420575000000,18,,-1403168122863053920,-0.2727377414703369,31.218693038681522,-5.194825383486844,9.539652834615278,76,11,0.0,16399,324543358671745,19,36.2,11.342761993408203,0.06920000165700912,16,0.0,1902.9177342976868,1575420030,,,,0,,1,-1.48,32.800000000000004,0.0,0.0,,,C,301554730769336
Raw,1719425325438,292420575000000,18,,-1403168122863053920,-0.2727377414703369,31.218693038681522,-5.194825383486844,9.539652834615278,76,14,0.0,16399,324543354439299,17,36.7,-672.1146240234375,0.053300000727176666,16,0.0,1902.9177342976868,1575420030,,,,0,,1,-1.48,33.300000000000004,0.0,0.0,,,C,301554730769336
Raw,1719425325438,292420575000000,18,,-1403168122863053920,-0.2727377414703369,31.218693038681522,-5.194825383486844,9.539652834615278,76,16,0.0,16399,324543249920177,27,33.2,604.3156127929688,0.6299999952316284,16,0.0,0.0,1575420030,,,,0,,1,-1.48,29.800000000000004,0.0,0.0,,,C,301554730769336
Raw,1719425325438,292420575000000,18,,-1403168122863053920,-0.2727377414703369,31.218693038681522,-5.194825383486844,9.539652834615278,76,20,0.0,16399,324543357465899,17,36.4,-624.5537719726562,0.05780000239610672,16,0.0,1902.9177342976868,1575420030,,,,0,,1,-1.48,33.0,0.0,0.0,,,C,301554730769336
Raw,1719425325438,292420575000000,18,,-1403168122863053920,-0.2727377414703369,31.218693038681522,-5.194825383486844,9.539652834615278,76,30,0.0,16399,324543363804190,17,36.7,-404.42083740234375,0.03680000081658363,16,0.0,1902.9177342976868,1575420030,,,,0,,1,-1.48,33.300000000000004,0.0,0.0,,,C,301554730769336
Raw,1719425325438,292420575000000,18,,-1403168122863053920,-0.2727377414703369,31.218693038681522,-5.194825383486844,9.539652834615278,76,194,0.0,35,9,35,31.2,35.784725189208984,0.7414999604225159,16,0.0,0.0,1575420030,,,,0,,4,-1.48,27.8,0.0,0.0,,,C,301554730769336
Raw,1719425325438,292420575000000,18,,-1403168122863053920,-0.2727377414703369,31.218693038681522,-5.194825383486844,9.539652834615278,76,1,0.0,49359,76125366379994,46,29.7,366.8081970214844,0.8554999828338623,16,0.0,0.0,1602562560,,,,0,,3,-0.26,25.7,3756.966552734375,11.261722564697266,,,C,301554730769336
Fix,GPS,33.8182651200,35.4908042700,187.867431640625,0.0,3.7900925,,1719425326000,0.086023256,,301568868988762,2.5,0,,,
Fix,FLP,33.8182651000,35.4908043000,187.867431640625,0.00038351995,3.9,,1719425325865,0.086023256,,301568868988762,2.5,0,,,
Status,1719425326000,38,0,1,3,1575420030,36.20,147.0,20.0,1,1,1,31.2
Status,1719425326000,38,1,1,4,1575420030,36.20,74.0,37.0,1,1,1,31.2
Status,1719425326000,38,2,1,6,1575420030,36.40,246.0,25.0,1,1,1,31.4
Status,1719425326000,38,3,1,7,1575420030,35.90,274.0,73.0,1,1,1,30.9
Status,1719425326000,38,4,1,9,1575420030,36.10,23.0,63.0,1,1,1,31.1
Status,1719425326000,38,5,1,11,1575420030,36.20,289.0,20.0,1,1,1,31.2
Status,1719425326000,38,6,1,14,1575420030,36.10,191.0,5.0,1,1,1,31.1
Status,1719425326000,38,7,1,16,1575420030,27.30,0.0,0.0,0,1,1,22.3
Status,1719425326000,38,8,1,20,1575420030,36.30,317.0,14.0,1,1,1,31.3
Status,1719425326000,38,9,1,30,1575420030,35.80,243.0,39.0,1,1,1,30.8
Status,1719425326000,38,10,3,1,1602562560,28.20,102.0,33.0,0,1,1,23.2
Status,1719425326000,38,11,3,12,1601437440,0.00,56.0,66.0,0,1,1,0.0
Status,1719425326000,38,12,3,19,1603687550,0.00,322.0,5.0,0,1,0,0.0
Status,1719425326000,38,13,3,3,1604812540,0.00,323.0,26.0,0,1,0,0.0
Status,1719425326000,38,14,5,2,1561097980,0.00,115.0,24.0,0,1,0,0.0
Status,1719425326000,38,15,5,3,1561097980,0.00,98.0,2.0,0,1,0,0.0
Status,1719425326000,38,16,5,5,1561097980,0.00,142.0,43.0,0,1,0,0.0
Status,1719425326000,38,17,5,6,1561097980,0.00,53.0,14.0,0,1,0,0.0
Status,1719425326000,38,18,5,7,1561097980,0.00,95.0,16.0,0,1,0,0.0
Status,1719425326000,38,19,5,9,1561097980,0.00,47.0,30.0,0,1,0,0.0
Status,1719425326000,38,20,5,10,1561097980,0.00,106.0,17.0,0,1,0,0.0
Status,1719425326000,38,21,5,16,1561097980,0.00,53.0,13.0,0,1,0,0.0
Status,1719425326000,38,22,5,19,1561097980,0.00,97.0,64.0,0,1,0,0.0
Status,1719425326000,38,23,5,20,1561097980,0.00,120.0,17.0,0,1,0,0.0
Status,1719425326000,38,24,5,21,1561097980,0.00,309.0,2.0,0,1,0,0.0
Status,1719425326000,38,25,5,22,1561097980,0.00,323.0,51.0,0,1,0,0.0
Status,1719425326000,38,26,5,36,1561097980,0.00,174.0,74.0,0,1,0,0.0
Status,1719425326000,38,27,4,194,1575420030,26.60,0.0,0.0,0,1,0,21.6
Status,1719425326000,38,28,6,4,1575420030,0.00,309.0,43.0,0,1,0,0.0
Status,1719425326000,38,29,6,9,1575420030,0.00,285.0,1.0,0,1,0,0.0
Status,1719425326000,38,30,6,10,1575420030,0.00,253.0,28.0,0,1,1,0.0
Status,1719425326000,38,31,6,11,1575420030,0.00,284.0,25.0,0,1,0,0.0
Status,1719425326000,38,32,6,12,1575420030,0.00,226.0,24.0,0,1,1,0.0
Status,1719425326000,38,33,6,19,1575420030,0.00,53.0,54.0,0,1,0,0.0
Status,1719425326000,38,34,6,21,1575420030,0.00,81.0,45.0,0,1,1,0.0
Status,1719425326000,38,35,6,27,1575420030,0.00,36.0,9.0,0,1,1,0.0
Status,1719425326000,38,36,6,31,1575420030,0.00,192.0,2.0,0,1,0,0.0
Status,1719425326000,38,37,6,36,1575420030,0.00,327.0,3.0,0,1,0,0.0
Raw,1719425326438,292421575000000,18,,-1403168122863053927,-0.8313517570495605,30.90408063144423,-4.52632557578529,9.543822481238708,76,3,0.0,16399,324544359197621,13,39.6,677.8566284179688,0.05340000241994858,16,0.0,1902.9177342976868,1575420030,,,,0,,1,-1.06,36.2,0.0,0.0,,,C,301555726903346
Raw,1719425326438,292421575000000,18,,-1403168122863053927,-0.8313517570495605,30.90408063144423,-4.52632557578529,9.543822481238708,76,4,0.0,16399,324544364478547,13,39.6,321.1986999511719,0.030900001525878906,16,0.0,1902.9177342976868,1575420030,,,,0,,1,-1.06,36.2,0.0,0.0,,,C,301555726903346
Raw,1719425326438,292421575000000,18,,-1403168122863053927,-0.8313517570495605,30.90408063144423,-4.52632557578529,9.543822481238708,76,6,0.0,16399,324544360681880,13,39.8,406.10052490234375,0.024900000542402267,16,0.0,1902.9177342976868,1575420030,,,,0,,1,-1.06,36.4,0.0,0.0,,,C,301555726903346
Raw,1719425326438,292421575000000,18,,-1403168122863053927,-0.8313517570495605,30.90408063144423,-4.52632557578529,9.543822481238708,76,7,0.0,16399,324544368342881,14,39.3,-61.61838912963867,0.03800000250339508,16,0.0,1902.9177342976868,1575420030,,,,0,,1,-1.06,35.9,0.0,0.0,,,C,301555726903346
Raw,1719425326438,292421575000000,18,,-1403168122863053927,-0.8313517570495605,30.90408063144423,-4.52632557578529,9.543822481238708,76,9,0.0,16399,324544369534527,13,39.5,-0.9063917994499207,0.03840000182390213,16,0.0,1902.9177342976868,1575420030,,,,0,,1,-1.06,36.1,0.0,0.0,,,C,301555726903346
Raw,1719425326438,292421575000000,18,,-1403168122863053927,-0.8313517570495605,30.90408063144423,-4.52632557578529,9.543822481238708,76,11,0.0,16399,324544358671646,13,39.6,11.398663520812988,0.05190000310540199,16,0.0,1902.9177342976868,1575420030,,,,0,,1,-1.06,36.2,0.0,0.0,,,C,301555726903346
Raw,1719425326438,292421575000000,18,,-1403168122863053927,-0.8313517570495605,30.90408063144423,-4.52632557578529,9.543822481238708,76,14,0.0,16399,324544354441526,13,39.5,-672.1810913085938,0.045900002121925354,16,0.0,1902.9177342976868,1575420030,,,,0,,1,-1.06,36.1,0.0,0.0,,,C,301555726903346
Raw,1719425326438,292421575000000,18,,-1403168122863053927,-0.8313517570495605,30.90408063144423,-4.52632557578529,9.543822481238708,76,16,0.0,16399,324544249918125,35,30.7,604.0587158203125,0.7999999523162842,16,0.0,0.0,1575420030,,,,0,,1,-1.06,27.3,0.0,0.0,,,C,301555726903346
Raw,1719425326438,292421575000000,18,,-1403168122863053927,-0.8313517570495605,30.90408063144423,-4.52632557578529,9.543822481238708,76,20,0.0,16399,324544357467928,13,39.7,-624.580078125,0.05040000379085541,16,0.0,1902.9177342976868,1575420030,,,,0,,1,-1.06,36.300000000000004,0.0,0.0,,,C,301555726903346
Raw,1719425326438,292421575000000,18,,-1403168122863053927,-0.8313517570495605,30.90408063144423,-4.52632557578529,9.543822481238708,76,30,0.0,16399,324544363805495,14,39.2,-404.4353332519531,0.030500002205371857,16,0.0,1902.9177342976868,1575420030,,,,0,,1,-1.06,35.800000000000004,0.0,0.0,,,C,301555726903346
Raw,1719425326438,292421575000000,18,,-1403168122863053927,-0.8313517570495605,30.90408063144423,-4.52632557578529,9.543822481238708,76,194,0.0,35,11,40,30.0,35.651519775390625,0.8014999628067017,16,0.0,0.0,1575420030,,,,0,,4,-1.06,26.6,0.0,0.0,,,C,301555726903346
Raw,1719425326438,292421575000000,18,,-1403168122863053927,-0.8313517570495605,30.90408063144423,-4.52632557578529,9.543822481238708,76,1,0.0,49359,76126366378662,31,32.2,366.96722412109375,0.6754999756813049,16,0.0,0.0,1602562560,,,,0,,3,0.42,28.200000000000003,3756.966552734375,11.261722564697266,,,C,301555726903346
Fix,GPS,33.8182651000,35.4908042700,187.86700439453125,0.0,3.7900925,,1719425327000,0.086023256,,301569863209491,2.5,0,,,
Fix,FLP,33.8182651000,35.4908043000,187.86700439453125,0.00011859384,3.9,,1719425326860,0.086023256,,301569863209491,2.5,0,,,
Status,1719425327000,38,0,1,3,1575420030,38.30,147.0,20.0,1,1,1,33.3
Status,1719425327000,38,1,1,4,1575420030,38.30,74.0,37.0,1,1,1,33.3
Status,1719425327000,38,2,1,6,1575420030,38.30,246.0,25.0,1,1,1,33.3
Status,1719425327000,38,3,1,7,1575420030,38.50,274.0,73.0,1,1,1,33.5
Status,1719425327000,38,4,1,9,1575420030,38.30,23.0,63.0,1,1,1,33.3
Status,1719425327000,38,5,1,11,1575420030,38.20,289.0,20.0,1,1,1,33.2
Status,1719425327000,38,6,1,14,1575420030,38.50,191.0,5.0,1,1,1,33.5
Status,1719425327000,38,7,1,16,1575420030,30.20,0.0,0.0,0,1,1,25.2
Status,1719425327000,38,8,1,20,1575420030,38.30,317.0,14.0,1,1,1,33.3
Status,1719425327000,38,9,1,30,1575420030,38.20,243.0,39.0,1,1,1,33.2
Status,1719425327000,38,10,3,1,1602562560,27.40,102.0,33.0,0,1,1,22.4
Status,1719425327000,38,11,3,12,1601437440,0.00,56.0,66.0,0,1,1,0.0
Status,1719425327000,38,12,3,19,1603687550,0.00,322.0,5.0,0,1,0,0.0
Status,1719425327000,38,13,3,3,1604812540,0.00,323.0,26.0,0,1,0,0.0
Status,1719425327000,38,14,5,2,1561097980,0.00,115.0,24.0,0,1,0,0.0
Status,1719425327000,38,15,5,3,1561097980,0.00,98.0,2.0,0,1,0,0.0
Status,1719425327000,38,16,5,5,1561097980,0.00,142.0,43.0,0,1,0,0.0
Status,1719425327000,38,17,5,6,1561097980,0.00,53.0,14.0,0,1,0,0.0
Status,1719425327000,38,18,5,7,1561097980,0.00,95.0,16.0,0,1,0,0.0
Status,1719425327000,38,19,5,9,1561097980,0.00,47.0,30.0,0,1,0,0.0
Status,1719425327000,38,20,5,10,1561097980,0.00,106.0,17.0,0,1,0,0.0
Status,1719425327000,38,21,5,16,1561097980,0.00,53.0,13.0,0,1,0,0.0
Status,1719425327000,38,22,5,19,1561097980,0.00,97.0,64.0,0,1,0,0.0
Status,1719425327000,38,23,5,20,1561097980,0.00,120.0,17.0,0,1,0,0.0
Status,1719425327000,38,24,5,21,1561097980,0.00,309.0,2.0,0,1,0,0.0
Status,1719425327000,38,25,5,22,1561097980,0.00,323.0,51.0,0,1,0,0.0
Status,1719425327000,38,26,5,36,1561097980,0.00,174.0,74.0,0,1,0,0.0
Status,1719425327000,38,27,4,194,1575420030,27.40,0.0,0.0,0,1,0,22.4
Status,1719425327000,38,28,6,4,1575420030,0.00,309.0,43.0,0,1,0,0.0
Status,1719425327000,38,29,6,9,1575420030,0.00,285.0,1.0,0,1,0,0.0
Status,1719425327000,38,30,6,10,1575420030,0.00,253.0,28.0,0,1,1,0.0
Status,1719425327000,38,31,6,11,1575420030,0.00,284.0,25.0,0,1,0,0.0
Status,1719425327000,38,32,6,12,1575420030,0.00,226.0,24.0,0,1,1,0.0
Status,1719425327000,38,33,6,19,1575420030,0.00,53.0,54.0,0,1,0,0.0
Status,1719425327000,38,34,6,21,1575420030,0.00,81.0,45.0,0,1,1,0.0
Status,1719425327000,38,35,6,27,1575420030,0.00,36.0,9.0,0,1,1,0.0
Status,1719425327000,38,36,6,31,1575420030,0.00,192.0,2.0,0,1,0,0.0
Status,1719425327000,38,37,6,36,1575420030,0.00,327.0,3.0,0,1,0,0.0
Raw,1719425327438,292422575000000,18,,-1403168122863053918,-0.3355867862701416,34.903539926745,-4.74427530314764,10.490847605404282,76,3,0.0,16399,324545359195335,11,41.7,677.32421875,0.05170000344514847,16,0.0,1902.9177342976868,1575420030,,,,0,,1,-0.26,38.300000000000004,0.0,0.0,,,C,301556725459230
Raw,1719425327438,292422575000000,18,,-1403168122863053918,-0.3355867862701416,34.903539926745,-4.74427530314764,10.490847605404282,76,4,0.0,16399,324545364477466,11,41.7,320.6720275878906,0.029200000688433647,16,0.0,1902.9177342976868,1575420030,,,,0,,1,-0.26,38.300000000000004,0.0,0.0,,,C,301556725459230
Raw,1719425327438,292422575000000,18,,-1403168122863053918,-0.3355867862701416,34.903539926745,-4.74427530314764,10.490847605404282,76,6,0.0,16399,324545360680503,11,41.7,405.6098327636719,0.02319999970495701,16,0.0,1902.9177342976868,1575420030,,,,0,,1,-0.26,38.300000000000004,0.0,0.0,,,C,301556725459230
Raw,1719425327438,292422575000000,18,,-1403168122863053918,-0.3355867862701416,34.903539926745,-4.74427530314764,10.490847605404282,76,7,0.0,16399,324545368343065,11,41.9,-62.112701416015625,0.03519999980926514,16,0.0,1902.9177342976868,1575420030,,,,0,,1,-0.26,38.5,0.0,0.0,,,C,301556725459230
Raw,1719425327438,292422575000000,18,,-1403168122863053918,-0.3355867862701416,34.903539926745,-4.74427530314764,10.490847605404282,76,9,0.0,16399,324545369534511,11,41.7,-1.406599998474121,0.03670000284910202,16,0.0,1902.9177342976868,1575420030,,,,0,,1,-0.26,38.300000000000004,0.0,0.0,,,C,301556725459230
Raw,1719425327438,292422575000000,18,,-1403168122863053918,-0.3355867862701416,34.903539926745,-4.74427530314764,10.490847605404282,76,11,0.0,16399,324545358671606,11,41.6,10.947352409362793,0.050200000405311584,16,0.0,1902.9177342976868,1575420030,,,,0,,1,-0.26,38.2,0.0,0.0,,,C,301556725459230
Raw,1719425327438,292422575000000,18,,-1403168122863053918,-0.3355867862701416,34.903539926745,-4.74427530314764,10.490847605404282,76,14,0.0,16399,324545354443751,11,41.9,-672.7713012695312,0.044200003147125244,16,0.0,1902.9177342976868,1575420030,,,,0,,1,-0.26,38.5,0.0,0.0,,,C,301556725459230
Raw,1719425327438,292422575000000,18,,-1403168122863053918,-0.3355867862701416,34.903539926745,-4.74427530314764,10.490847605404282,76,16,0.0,16399,324545249916075,24,33.6,604.0955810546875,0.10599999874830246,16,0.0,1902.9177342976868,1575420030,,,,0,,1,-0.26,30.200000000000003,0.0,0.0,,,C,301556725459230
Raw,1719425327438,292422575000000,18,,-1403168122863053918,-0.3355867862701416,34.903539926745,-4.74427530314764,10.490847605404282,76,20,0.0,16399,324545357469995,11,41.7,-625.0977172851562,0.0487000048160553,16,0.0,1902.9177342976868,1575420030,,,,0,,1,-0.26,38.300000000000004,0.0,0.0,,,C,301556725459230
Raw,1719425327438,292422575000000,18,,-1403168122863053918,-0.3355867862701416,34.903539926745,-4.74427530314764,10.490847605404282,76,30,0.0,16399,324545363806842,11,41.6,-404.9305725097656,0.027700001373887062,16,0.0,1902.9177342976868,1575420030,,,,0,,1,-0.26,38.2,0.0,0.0,,,C,301556725459230
Raw,1719425327438,292422575000000,18,,-1403168122863053918,-0.3355867862701416,34.903539926745,-4.74427530314764,10.490847605404282,76,194,0.0,35,17,35,30.8,34.37655258178711,0.8014999628067017,16,0.0,0.0,1575420030,,,,0,,4,-0.26,27.400000000000002,0.0,0.0,,,C,301556725459230
Raw,1719425327438,292422575000000,18,,-1403168122863053918,-0.3355867862701416,34.903539926745,-4.74427530314764,10.490847605404282,76,98,0.0,49359,76127371597274,80,25.1,-464.88311767578125,3.433000087738037,16,0.0,0.0,1600875010,,,,0,,3,1.21,21.1,3756.966552734375,11.261722564697266,,,C,301556725459230
Raw,1719425327438,292422575000000,18,,-1403168122863053918,-0.3355867862701416,34.903539926745,-4.74427530314764,10.490847605404282,76,1,0.0,49359,76127366377423,35,31.4,367.01397705078125,0.7354999780654907,16,0.0,0.0,1602562560,,,,0,,3,1.21,27.4,3756.966552734375,11.261722564697266,,,C,301556725459230
Fix,GPS,33.8182650900,35.4908042800,187.8651123046875,0.0,3.7900925,,1719425328000,0.086023256,,301570879998917,2.5,0,,,
Fix,FLP,33.8182651000,35.4908043000,187.8651123046875,0.000034526052,3.9,,1719425327876,0.086023256,,301570879998917,2.5,0,,,
Status,1719425328000,38,0,1,3,1575420030,38.30,147.0,20.0,1,1,1,33.3
Status,1719425328000,38,1,1,4,1575420030,38.00,74.0,37.0,1,1,1,33.0
Status,1719425328000,38,2,1,6,1575420030,38.30,246.0,25.0,1,1,1,33.3
Status,1719425328000,38,3,1,7,1575420030,37.90,274.0,73.0,1,1,1,32.9
Status,1719425328000,38,4,1,9,1575420030,38.20,23.0,63.0,1,1,1,33.2
Status,1719425328000,38,5,1,11,1575420030,38.00,289.0,20.0,1,1,1,33.0
Status,1719425328000,38,6,1,14,1575420030,38.30,191.0,5.0,1,1,1,33.3
Status,1719425328000,38,7,1,16,1575420030,30.40,0.0,0.0,0,1,1,25.4
Status,1719425328000,38,8,1,20,1575420030,38.20,317.0,14.0,1,1,1,33.2
Status,1719425328000,38,9,1,30,1575420030,38.00,243.0,39.0,1,1,1,33.0
Status,1719425328000,38,10,3,1,1602562560,27.30,102.0,33.0,0,1,1,22.3
Status,1719425328000,38,11,3,12,1601437440,0.00,56.0,66.0,0,1,1,0.0
Status,1719425328000,38,12,3,19,1603687550,0.00,322.0,5.0,0,1,0,0.0
Status,1719425328000,38,13,3,3,1604812540,0.00,323.0,26.0,0,1,0,0.0
Status,1719425328000,38,14,5,2,1561097980,0.00,115.0,24.0,0,1,0,0.0
Status,1719425328000,38,15,5,3,1561097980,0.00,98.0,2.0,0,1,0,0.0
Status,1719425328000,38,16,5,5,1561097980,0.00,142.0,43.0,0,1,0,0.0
Status,1719425328000,38,17,5,6,1561097980,0.00,53.0,14.0,0,1,0,0.0
Status,1719425328000,38,18,5,7,1561097980,0.00,95.0,16.0,0,1,0,0.0
Status,1719425328000,38,19,5,9,1561097980,0.00,47.0,30.0,0,1,0,0.0
Status,1719425328000,38,20,5,10,1561097980,0.00,106.0,17.0,0,1,0,0.0
Status,1719425328000,38,21,5,16,1561097980,0.00,53.0,13.0,0,1,0,0.0
Status,1719425328000,38,22,5,19,1561097980,0.00,97.0,64.0,0,1,0,0.0
Status,1719425328000,38,23,5,20,1561097980,0.00,120.0,17.0,0,1,0,0.0
Status,1719425328000,38,24,5,21,1561097980,0.00,309.0,2.0,0,1,0,0.0
Status,1719425328000,38,25,5,22,1561097980,0.00,323.0,51.0,0,1,0,0.0
Status,1719425328000,38,26,5,36,1561097980,0.00,174.0,74.0,0,1,0,0.0
Status,1719425328000,38,27,4,194,1575420030,27.80,0.0,0.0,0,1,0,22.8
Status,1719425328000,38,28,6,4,1575420030,0.00,309.0,43.0,0,1,0,0.0
Status,1719425328000,38,29,6,9,1575420030,0.00,285.0,1.0,0,1,0,0.0
Status,1719425328000,38,30,6,10,1575420030,0.00,253.0,28.0,0,1,1,0.0
Status,1719425328000,38,31,6,11,1575420030,0.00,284.0,25.0,0,1,0,0.0
Status,1719425328000,38,32,6,12,1575420030,0.00,226.0,24.0,0,1,1,0.0
Status,1719425328000,38,33,6,19,1575420030,0.00,53.0,54.0,0,1,0,0.0
Status,1719425328000,38,34,6,21,1575420030,0.00,81.0,45.0,0,1,1,0.0
Status,1719425328000,38,35,6,27,1575420030,0.00,36.0,9.0,0,1,1,0.0
Status,1719425328000,38,36,6,31,1575420030,0.00,192.0,2.0,0,1,0,0.0
Status,1719425328000,38,37,6,36,1575420030,0.00,327.0,3.0,0,1,0,0.0
Raw,1719425328438,292423575000000,18,,-1403168122863053908,-0.8919758796691895,36.42747469712049,-6.637984376883813,10.488323390568736,76,3,0.0,16399,324546359193087,11,41.7,677.9041137695312,0.05170000344514847,16,0.0,1902.9177342976868,1575420030,,,,0,,1,-1.57,38.300000000000004,0.0,0.0,,,C,301557723427095
Raw,1719425328438,292423575000000,18,,-1403168122863053908,-0.8919758796691895,36.42747469712049,-6.637984376883813,10.488323390568736,76,4,0.0,16399,324546364476382,11,41.4,321.27691650390625,0.029200000688433647,16,0.0,1902.9177342976868,1575420030,,,,0,,1,-1.57,38.0,0.0,0.0,,,C,301557723427095
Raw,1719425328438,292423575000000,18,,-1403168122863053908,-0.8919758796691895,36.42747469712049,-6.637984376883813,10.488323390568736,76,6,0.0,16399,324546360679159,11,41.7,406.244873046875,0.02319999970495701,16,0.0,1902.9177342976868,1575420030,,,,0,,1,-1.57,38.300000000000004,0.0,0.0,,,C,301557723427095
Raw,1719425328438,292423575000000,18,,-1403168122863053908,-0.8919758796691895,36.42747469712049,-6.637984376883813,10.488323390568736,76,7,0.0,16399,324546368343289,12,41.3,-61.48347854614258,0.036000002175569534,16,0.0,1902.9177342976868,1575420030,,,,0,,1,-1.57,37.9,0.0,0.0,,,C,301557723427095
