# 
# Header Description:
# 
# Version: v3.0.6.4 Platform: 14 Manufacturer: samsung Model: SM-G998B
# 
# Raw,utcTimeMillis,TimeNanos,LeapSecond,TimeUncertaintyNanos,FullBiasNanos,BiasNanos,BiasUncertaintyNanos,DriftNanosPerSecond,DriftUncertaintyNanosPerSecond,HardwareClockDiscontinuityCount,Svid,TimeOffsetNanos,State,ReceivedSvTimeNanos,ReceivedSvTimeUncertaintyNanos,Cn0DbHz,PseudorangeRateMetersPerSecond,PseudorangeRateUncertaintyMetersPerSecond,AccumulatedDeltaRangeState,AccumulatedDeltaRangeMeters,AccumulatedDeltaRangeUncertaintyMeters,CarrierFrequencyHz,CarrierCycles,CarrierPhase,CarrierPhaseUncertainty,MultipathIndicator,SnrInDb,ConstellationType,AgcDb,BasebandCn0DbHz,FullInterSignalBiasNanos,FullInterSignalBiasUncertaintyNanos,SatelliteInterSignalBiasNanos,SatelliteInterSignalBiasUncertaintyNanos,CodeType,ChipsetElapsedRealtimeNanos
# 
# UncalAccel,utcTimeMillis,elapsedRealtimeNanos,UncalAccelXMps2,UncalAccelYMps2,UncalAccelZMps2,BiasXMps2,BiasYMps2,BiasZMps2
# 
# Accel,utcTimeMillis,elapsedRealtimeNanos,AccelXMps2,AccelYMps2,AccelZMps2
# 
# UncalGyro,utcTimeMillis,elapsedRealtimeNanos,UncalGyroXRadPerSec,UncalGyroYRadPerSec,UncalGyroZRadPerSec,DriftXRadPerSec,DriftYRadPerSec,DriftZRadPerSec
# 
# Gyro,utcTimeMillis,elapsedRealtimeNanos,GyroXRadPerSec,GyroYRadPerSec,GyroZRadPerSec
# 
# UncalMag,utcTimeMillis,elapsedRealtimeNanos,UncalMagXMicroT,UncalMagYMicroT,UncalMagZMicroT,BiasXMicroT,BiasYMicroT,BiasZMicroT
# 
# Mag,utcTimeMillis,elapsedRealtimeNanos,MagXMicroT,MagYMicroT,MagZMicroT
# 
# OrientationDeg,utcTimeMillis,elapsedRealtimeNanos,yawDeg,rollDeg,pitchDeg
# 
# Fix,Provider,LatitudeDegrees,LongitudeDegrees,AltitudeMeters,SpeedMps,AccuracyMeters,BearingDegrees,UnixTimeMillis,SpeedAccuracyMps,BearingAccuracyDegrees,elapsedRealtimeNanos,VerticalAccuracyMeters,MockLocation,NumberOfUsedSignals,VerticalSpeedAccuracyMps,SolutionType
# 
# Nav,Svid,Type,Status,MessageId,Sub-messageId,Data(Bytes)
# 
# Status,UnixTimeMillis,SignalCount,SignalIndex,ConstellationType,Svid,CarrierFrequencyHz,Cn0DbHz,AzimuthDegrees,ElevationDegrees,UsedInFix,HasAlmanacData,HasEphemerisData,BasebandCn0DbHz
# 
# Agc,utcTimeMillis,TimeNanos,LeapSecond,TimeUncertaintyNanos,FullBiasNanos,BiasNanos,BiasUncertaintyNanos,DriftNanosPerSecond,DriftUncertaintyNanosPerSecond,HardwareClockDiscontinuityCount,AgcDb,CarrierFrequencyHz,ConstellationType
# 
Fix,FLP,30.0841883000,31.3515870000,703.0,0.000000000000000007899916,5.04,,1714922049196,0.15322332,,73647381876290,2.6740723,0,,,
Status,,12,0,1,8,1575449980,49.84,249.0,63.0,0,1,1,44.844696
Status,,12,1,1,32,1575449980,49.84,60.0,53.0,1,1,1,44.84278
Status,,12,2,1,27,1575449980,49.84,183.0,48.0,1,1,1,44.843426
Status,,12,3,1,21,1575449980,49.88,328.0,48.0,1,1,1,44.880165
Status,,12,4,3,17,1604249980,12.40,119.0,43.0,0,1,1,7.4022274
Status,,12,5,1,2,1575449980,49.85,318.0,32.0,0,1,1,44.84733
Status,,12,6,1,10,1575449980,49.84,46.0,30.0,0,1,1,44.839428
Status,,12,7,5,6,1575449980,22.25,82.0,26.0,0,1,1,17.247995
Status,,12,8,1,28,1575449980,49.83,125.0,15.0,1,1,1,44.833042
Status,,12,9,1,3,1575449980,49.87,258.0,15.0,1,1,1,44.86785
Status,,12,10,6,30,1575449980,18.73,252.0,13.0,0,1,1,13.72806
Status,,12,11,1,31,1575449980,49.84,154.0,6.0,1,1,1,44.839573
Fix,GPS,30.0841882576,31.3515870268,187.6802016422592,0.0,6.0,,1714922048999,0.14773412,,73648383411251,3.0,0,,,
Raw,1714922048999,319893000000,,,-1398956947106670768,0.0,5.822293180371584,1005.0,1.0,1112,2,0.0,16431,54866922548558,8,49.17548370361328,-145.16623122285625,0.15,25,-49254.766109770484,0.0005922027048654854,1575420030,,,,0,,1,34.27734375,44.17548370361328,0.0,1.0,0.0,1.0,C,73648283706828
Raw,1714922048999,319893000000,,,-1398956947106670768,0.0,5.822293180371584,1005.0,1.0,1112,3,0.0,16431,54866919753376,8,49.22229766845703,-153.60095756312137,0.15,25,-54015.45406984288,0.0005890193860977888,1575420030,,,,0,,1,34.27734375,44.22229766845703,0.5529727912983312,1.0,0.5529727912983312,1.0,C,73648283706828
Raw,1714922048999,319893000000,,,-1398956947106670768,0.0,5.822293180371584,1005.0,1.0,1112,8,0.0,16431,54866930124405,8,49.1791877746582,436.35356688430215,0.15,25,140869.11728990896,0.0005919501418247819,1575420030,,,,0,,1,34.27734375,44.1791877746582,-1.0477379360510244,1.0,-1.0477379360510244,1.0,C,73648283706828
Raw,1714922048999,319893000000,,,-1398956947106670768,0.0,5.822293180371584,1005.0,1.0,1112,10,0.0,16431,54866923123262,8,49.11487579345703,718.2097223927917,0.15,25,242596.70293477393,0.0005963492440059781,1575420030,,,,0,,1,34.27734375,44.11487579345703,-0.8149072504586254,1.0,-0.8149072504586254,1.0,C,73648283706828
Raw,1714922048999,319893000000,,,-1398956947106670768,0.0,5.822293180371584,1005.0,1.0,1112,16,0.0,16431,54866913048533,8,49.222084045410156,745.0892607189844,0.15,25,247717.17398950306,0.0005890339380130172,1575420030,,,,0,,1,34.27734375,44.222084045410156,0.0,1.0,0.0,1.0,C,73648283706828
Raw,1714922048999,319893000000,,,-1398956947106670768,0.0,5.822293180371584,1005.0,1.0,1112,21,0.0,16431,54866926771077,8,49.26508331298828,-2.325661952865728,0.15,25,-2152.863350007207,0.0005861250101588666,1575420030,,,,0,,1,34.27734375,44.26508331298828,0.0,1.0,0.0,1.0,C,73648283706828
Raw,1714922048999,319893000000,,,-1398956947106670768,0.0,5.822293180371584,1005.0,1.0,1112,27,0.0,16431,54866927229518,8,49.169227600097656,828.7134307240476,0.15,25,275876.69311891147,0.0005926293670199811,1575420030,,,,0,,1,34.27734375,44.169227600097656,-0.9022187202770824,1.0,-0.9022187202770824,1.0,C,73648283706828
Raw,1714922048999,319893000000,,,-1398956947106670768,0.0,5.822293180371584,1005.0,1.0,1112,28,0.0,16431,54866918918986,8,49.210289001464844,-140.64579832870874,0.15,25,-48505.20135750108,0.0005898341769352555,1575420030,,,,0,,1,34.27734375,44.210289001464844,-0.34924595383121304,1.0,-0.34924595383121304,1.0,C,73648283706828
Raw,1714922048999,319893000000,,,-1398956947106670768,0.0,5.822293180371584,1005.0,1.0,1112,31,0.0,16431,54866915964555,8,49.16963577270508,-209.07424544877802,0.15,25,-66599.5541943723,0.0005926014273427427,1575420030,,,,0,,1,34.27734375,44.16963577270508,-0.2619344840127561,1.0,-0.2619344840127561,1.0,C,73648283706828
Raw,1714922048999,319893000000,,,-1398956947106670768,0.0,5.822293180371584,1005.0,1.0,1112,32,0.0,16431,54866927725192,8,49.2364501953125,570.0423775020477,0.15,25,186782.66099576367,0.0005880604730919003,1575420030,,,,0,,1,34.27734375,44.2364501953125,-0.291038307285575,1.0,-0.291038307285575,1.0,C,73648283706828
Raw,1714922048999,319893000000,,,-1398956947106670768,0.0,5.822293180371584,1005.0,1.0,1112,3,0.0,16384,54866919753310,1000000000,12.0,-153.82646413670454,299792458,16,-54115.61926758722,340282346638528860000000000000000000000,1176450050,,,,1,,1,23.674503326416016,7.0,5.151378111026817,7.671281903963041,5.151378111026817,1.0,Q,73648283706828
Raw,1714922048999,319893000000,,,-1398956947106670768,0.0,5.822293180371584,1005.0,1.0,1112,8,0.0,16384,54866930124426,1000000000,12.0,435.3851138822065,299792458,16,140975.7768922608,340282346638528860000000000000000000000,1176450050,,,,1,,1,23.674503326416016,7.0,6.839399860850318,7.671281903963041,6.839399860850318,1.0,Q,73648283706828
Raw,1714922048999,319893000000,,,-1398956947106670768,0.0,5.822293180371584,1005.0,1.0,1112,10,0.0,16384,54866923123267,1000000000,12.0,717.6136883931208,299792458,16,242904.75047190257,340282346638528860000000000000000000000,1176450050,,,,1,,1,23.674503326416016,7.0,11.030352002693805,7.671281903963041,11.030352002693805,1.0,Q,73648283706828
Raw,1714922048999,319893000000,,,-1398956947106670768,0.0,5.822293180371584,1005.0,1.0,1112,27,0.0,16384,54866927229527,1000000000,12.0,827.8820914445432,299792458,16,276206.0217534668,340282346638528860000000000000000000000,1176450050,,,,0,,1,23.674503326416016,7.0,5.675246929937559,7.671281903963041,5.675246929937559,1.0,Q,73648283706828
Raw,1714922048999,319893000000,,,-1398956947106670768,0.0,5.822293180371584,1005.0,1.0,1112,32,0.0,16384,54866927725199,1000000000,12.0,569.3251122045251,299792458,16,186973.05369411173,340282346638528860000000000000000000000,1176450050,,,,0,,1,23.674503326416016,7.0,9.051291224863338,7.671281903963041,9.051291224863338,1.0,Q,73648283706828
Raw,1714922048999,319893000000,,,-1398956947106670768,0.0,5.822293180371584,1005.0,1.0,1112,18,0.0,32768,65648934674890,1000000000,12.0,76.13796695044203,299792458,16,17874.57350294256,340282346638528860000000000000000000000,1600312450,,,,0,,3,50.755516052246094,7.0,14.901161193847656,2.0000000474974513,14.901161193847656,2.0000000474974513,C,73648283706828
Raw,1714922048999,319893000000,,,-1398956947106670768,0.0,5.822293180371584,1005.0,1.0,1112,17,0.0,32768,65648930754518,1000000000,12.402227401733398,694.5838998610056,299792458,16,196922.52815680346,340282346638528860000000000000000000000,1604249980,,,,1,,3,50.755516052246094,7.402227401733398,14.901161193847656,2.0000000474974513,14.901161193847656,2.0000000474974513,C,73648283706828
Raw,1714922048999,319893000000,,,-1398956947106670768,0.0,5.822293180371584,1005.0,1.0,1112,3,0.0,32768,65648934926794,1000000000,12.0,561.7910829427883,299792458,16,157782.52536103976,340282346638528860000000000000000000000,1604812540,,,,1,,3,50.755516052246094,7.0,14.901161193847656,2.0000000474974513,14.901161193847656,2.0000000474974513,C,73648283706828
Raw,1714922048999,319893000000,,,-1398956947106670768,0.0,5.822293180371584,1005.0,1.0,1112,4,0.0,32960,65648930145412,1000000000,12.0,-132.59145776508058,299792458,16,-55780.2771453413,340282346638528860000000000000000000000,1605374980,,,,1,,3,50.755516052246094,7.0,14.901161193847656,2.0000000474974513,14.901161193847656,2.0000000474974513,C,73648283706828
Raw,1714922048999,319893000000,,,-1398956947106670768,0.0,5.822293180371584,1005.0,1.0,1112,6,0.0,16384,54852869363399,1000000000,22.247995376586914,61.45388564246147,299792458,16,16586.66185796208,340282346638528860000000000000000000000,1561097980,,,,0,,5,47.14895248413086,17.247995376586914,16.385456547141075,2.500692349107121,16.385456547141075,1.5000000237487257,C,73648283706828
Raw,1714922048999,319893000000,,,-1398956947106670768,0.0,5.822293180371584,1005.0,1.0,1112,9,0.0,16384,54852867326359,1000000000,12.0,26.231068467161435,299792458,16,6728.091545374291,340282346638528860000000000000000000000,1561097980,,,,1,,5,47.14895248413086,7.0,16.385456547141075,2.500692349107121,16.385456547141075,1.5000000237487257,C,73648283706828
Raw,1714922048999,319893000000,,,-1398956947106670768,0.0,5.822293180371584,1005.0,1.0,1112,11,0.0,16384,54852915739646,1000000000,12.0,-267.1675028910279,299792458,16,-77004.82275400493,340282346638528860000000000000000000000,1561097980,,,,1,,5,47.14895248413086,7.0,16.385456547141075,2.500692349107121,16.385456547141075,1.5000000237487257,C,73648283706828
Raw,1714922048999,319893000000,,,-1398956947106670768,0.0,5.822293180371584,1005.0,1.0,1112,12,0.0,16384,54852926788213,1000000000,12.0,109.41687843704239,299792458,16,26817.035396207088,340282346638528860000000000000000000000,1561097980,,,,0,,5,47.14895248413086,7.0,16.385456547141075,2.500692349107121,16.385456547141075,1.5000000237487257,C,73648283706828
Raw,1714922048999,319893000000,,,-1398956947106670768,0.0,5.822293180371584,1005.0,1.0,1112,16,0.0,16384,54852867353080,1000000000,12.0,106.04447900840921,299792458,16,29249.81950743976,340282346638528860000000000000000000000,1561097980,,,,0,,5,47.14895248413086,7.0,16.385456547141075,2.500692349107121,16.385456547141075,1.5000000237487257,C,73648283706828
Raw,1714922048999,319893000000,,,-1398956947106670768,0.0,5.822293180371584,1005.0,1.0,1112,21,0.0,16384,54852925768362,1000000000,12.0,165.998212546098,299792458,16,42046.51639764397,340282346638528860000000000000000000000,1561097980,,,,1,,5,47.14895248413086,7.0,16.385456547141075,2.500692349107121,16.385456547141075,1.5000000237487257,C,73648283706828
Raw,1714922048999,319893000000,,,-1398956947106670768,0.0,5.822293180371584,1005.0,1.0,1112,22,0.0,16384,54852924063045,1000000000,12.0,687.2209986134699,299792458,16,197474.97191365395,340282346638528860000000000000000000000,1561097980,,,,1,,5,47.14895248413086,7.0,16.385456547141075,2.500692349107121,16.385456547141075,1.5000000237487257,C,73648283706828
Raw,1714922048999,319893000000,,,-1398956947106670768,0.0,5.822293180371584,1005.0,1.0,1112,34,0.0,16384,54852922478932,1000000000,12.0,-142.38880923774178,299792458,16,-43270.610439154654,340282346638528860000000000000000000000,1561097980,,,,1,,5,47.14895248413086,7.0,16.385456547141075,2.500692349107121,16.385456547141075,1.5000000237487257,C,73648283706828
Raw,1714922048999,319893000000,,,-1398956947106670768,0.0,5.822293180371584,1005.0,1.0,1112,3,0.0,83968,54866915576260,1000000000,12.0,-189.17970209219618,299792458,16,-59407.81093712378,340282346638528860000000000000000000000,1575420030,,,,0,,6,34.27734375,7.0,-1.2805685400962827,1.5000000237487257,-1.2805685400962827,1.5000000237487257,C,73648283706828
Raw,1714922048999,319893000000,,,-1398956947106670768,0.0,5.822293180371584,1005.0,1.0,1112,5,0.0,83968,54866925818067,1000000000,12.0,255.64291216608956,299792458,16,70491.84247986795,340282346638528860000000000000000000000,1575420030,,,,0,,6,34.27734375,7.0,-1.2805685400962827,1.5000000237487257,-1.2805685400962827,1.5000000237487257,C,73648283706828
Raw,1714922048999,319893000000,,,-1398956947106670768,0.0,5.822293180371584,1005.0,1.0,1112,9,0.0,83968,54866911494899,1000000000,12.0,726.2712458341321,299792458,16,207042.1191363113,340282346638528860000000000000000000000,1575420030,,,,0,,6,34.27734375,7.0,-1.2805685400962827,1.5000000237487257,-1.2805685400962827,1.5000000237487257,C,73648283706828
Raw,1714922048999,319893000000,,,-1398956947106670768,0.0,5.822293180371584,1005.0,1.0,1112,15,0.0,83968,54866910117240,1000000000,12.0,-89.11318371051834,299792458,16,-25008.266848231306,340282346638528860000000000000000000000,1575420030,,,,0,,6,34.27734375,7.0,-1.2805685400962827,1.5000000237487257,-1.2805685400962827,1.5000000237487257,C,73648283706828
Raw,1714922048999,319893000000,,,-1398956947106670768,0.0,5.822293180371584,1005.0,1.0,1112,30,0.0,16384,54866907559097,1000000000,18.728059768676758,670.7613533901699,299792458,16,10.014413756465123,340282346638528860000000000000000000000,1575420030,,,,0,,6,34.27734375,13.728059768676758,-1.2805685400962827,1.5000000237487257,-1.2805685400962827,1.5000000237487257,C,73648283706828
Raw,1714922048999,319893000000,,,-1398956947106670768,0.0,5.822293180371584,1005.0,1.0,1112,34,0.0,83968,54866919896602,1000000000,12.0,127.17161440513848,299792458,16,36045.25541999206,340282346638528860000000000000000000000,1575420030,,,,0,,6,34.27734375,7.0,-1.2805685400962827,1.5000000237487257,-1.2805685400962827,1.5000000237487257,C,73648283706828
Raw,1714922048999,319893000000,,,-1398956947106670768,0.0,5.822293180371584,1005.0,1.0,1112,36,0.0,83968,54866916137457,1000000000,12.0,487.893773369683,299792458,16,140000.83807490204,340282346638528860000000000000000000000,1575420030,,,,0,,6,34.27734375,7.0,-1.2805685400962827,1.5000000237487257,-1.2805685400962827,1.5000000237487257,C,73648283706828
Raw,1714922048999,319893000000,,,-1398956947106670768,0.0,5.822293180371584,1005.0,1.0,1112,3,0.0,16384,54866915576224,1000000000,12.0,-189.253746228992,299792458,16,-59268.20978123956,340282346638528860000000000000000000000,1176450050,,,,1,,6,23.674503326416016,7.0,-2.2040912881493564,8.171281927711767,-2.2040912881493564,1.5000000237487257,Q,73648283706828
Raw,1714922048999,319893000000,,,-1398956947106670768,0.0,5.822293180371584,1005.0,1.0,1112,5,0.0,16384,54866925818049,1000000000,12.22608757019043,255.14106503501944,299792458,16,70446.57465563649,340282346638528860000000000000000000000,1176450050,,,,1,,6,23.674503326416016,7.22608757019043,-2.5735003873705855,8.171281927711767,-2.5735003873705855,1.5000000237487257,Q,73648283706828
Raw,1714922048999,319893000000,,,-1398956947106670768,0.0,5.822293180371584,1005.0,1.0,1112,9,0.0,16384,54866911494872,1000000000,12.0,726.0917676180829,299792458,16,206999.88490381738,340282346638528860000000000000000000000,1176450050,,,,1,,6,23.674503326416016,7.0,-0.9111594408750534,8.171281927711767,-0.9111594408750534,1.5000000237487257,Q,73648283706828
Raw,1714922048999,319893000000,,,-1398956947106670768,0.0,5.822293180371584,1005.0,1.0,1112,15,0.0,16384,54866910117187,1000000000,12.0,-88.8764469675109,299792458,16,-25000.776509784435,340282346638528860000000000000000000000,1176450050,,,,0,,6,23.674503326416016,7.0,-3.866432234644889,8.171281927711767,-3.866432234644889,1.5000000237487257,Q,73648283706828
Raw,1714922048999,319893000000,,,-1398956947106670768,0.0,5.822293180371584,1005.0,1.0,1112,34,0.0,16384,54866919896587,1000000000,12.0,127.14935004041496,299792458,16,36008.63641310045,340282346638528860000000000000000000000,1176450050,,,,1,,6,23.674503326416016,7.0,-3.1276140362024303,8.171281927711767,-3.1276140362024303,1.5000000237487257,Q,73648283706828
Raw,1714922048999,319893000000,,,-1398956947106670768,0.0,5.822293180371584,1005.0,1.0,1112,36,0.0,16384,54866916137426,1000000000,12.0,487.5937795873692,299792458,16,139963.9991091542,340282346638528860000000000000000000000,1176450050,,,,1,,6,23.674503326416016,7.0,-4.789954982697963,8.171281927711767,-4.789954982697963,1.5000000237487257,Q,73648283706828
Fix,FLP,30.0841883000,31.3515870000,703.0,0.000000000000000007899916,5.325,,1714922050198,0.14773412,,73648383411251,2.7239685,0,,,
Fix,NLP,32.1033314000,35.2090528000,703.0,,12.958,,1714922051063,,,73649248000000,2.9557538,0,,,
Fix,FLP,30.0841883000,31.3515870000,703.0,0.000000000000000007899916,5.882,,1714922051063,1.5,,73649248000000,2.635091,0,,,
Raw,1714922049999,320893000000,,,-1398956947106669764,0.0,5.714739678683108,1005.0,1.0,1112,2,0.0,16431,54867922549066,11,45.34059524536133,-145.70483628328623,0.15,25,-49400.38856913574,0.0008736468735150993,1575420030,,,,0,,1,37.066368103027344,40.34059524536133,0.0,1.0,0.0,1.0,C,73649282915520
Raw,1714922049999,320893000000,,,-1398956947106669764,0.0,5.714739678683108,1005.0,1.0,1112,3,0.0,16431,54867919753916,12,45.31772232055664,-154.10568466176767,0.15,25,-54169.485172619556,0.0008759506163187325,1575420030,,,,0,,1,37.066368103027344,40.31772232055664,0.5529727912983312,1.0,0.5529727912983312,1.0,C,73649282915520
Raw,1714922049999,320893000000,,,-1398956947106669764,0.0,5.714739678683108,1005.0,1.0,1112,8,0.0,16431,54867930122975,12,45.19453430175781,435.9411009954631,0.15,25,141305.07276599985,0.0008884621784090996,1575420030,,,,0,,1,37.066368103027344,40.19453430175781,-1.0477379360510244,1.0,-1.0477379360510244,1.0,C,73649282915520
Raw,1714922049999,320893000000,,,-1398956947106669764,0.0,5.714739678683108,1005.0,1.0,1112,10,0.0,16431,54867923120890,12,45.23500442504883,717.6744914955575,0.15,25,243314.45546077067,0.0008843322866596282,1575420030,,,,0,,1,37.066368103027344,40.23500442504883,-0.8149072504586254,1.0,-0.8149072504586254,1.0,C,73649282915520
Raw,1714922049999,320893000000,,,-1398956947106669764,0.0,5.714739678683108,1005.0,1.0,1112,16,0.0,16431,54867913046069,12,45.3149528503418,744.4723682559215,0.15,25,248461.76755691395,0.000876230129506439,1575420030,,,,0,,1,37.066368103027344,40.3149528503418,0.0,1.0,0.0,1.0,C,73649282915520
Raw,1714922049999,320893000000,,,-1398956947106669764,0.0,5.714739678683108,1005.0,1.0,1112,21,0.0,16431,54867926771114,12,45.31612014770508,-2.863207528182386,0.15,25,-2155.6626154186706,0.0008761122589930892,1575420030,,,,0,,1,37.066368103027344,40.31612014770508,0.0,1.0,0.0,1.0,C,73649282915520
Raw,1714922049999,320893000000,,,-1398956947106669764,0.0,5.714739678683108,1005.0,1.0,1112,23,0.0,16385,54867915010483,13,42.19722366333008,796.8191360749147,0.15,16,341.0213575381325,340282346638528860000000000000000000000,1575420030,,,,0,,1,37.066368103027344,37.19722366333008,-0.20372681261465636,1.0,-0.20372681261465636,1.0,C,73649282915520
Raw,1714922049999,320893000000,,,-1398956947106669764,0.0,5.714739678683108,1005.0,1.0,1112,27,0.0,16431,54867927226777,12,45.201416015625,828.2638149575987,0.15,25,276704.99665454496,0.0008877586806192994,1575420030,,,,0,,1,37.066368103027344,40.201416015625,-0.9022187202770824,1.0,-0.9022187202770824,1.0,C,73649282915520
Raw,1714922049999,320893000000,,,-1398956947106669764,0.0,5.714739678683108,1005.0,1.0,1112,28,0.0,16431,54867918919473,11,45.32954025268555,-141.1532094208062,0.15,25,-48646.28669204079,0.0008747594547457993,1575420030,,,,0,,1,37.066368103027344,40.32954025268555,-0.34924595383121304,1.0,-0.34924595383121304,1.0,C,73649282915520
Raw,1714922049999,320893000000,,,-1398956947106669764,0.0,5.714739678683108,1005.0,1.0,1112,31,0.0,16431,54867915965282,12,45.298702239990234,-209.6415479376002,0.15,25,-66809.09583161579,0.0008778709452599287,1575420030,,,,0,,1,37.066368103027344,40.298702239990234,-0.2619344840127561,1.0,-0.2619344840127561,1.0,C,73649282915520
Raw,1714922049999,320893000000,,,-1398956947106669764,0.0,5.714739678683108,1005.0,1.0,1112,32,0.0,16431,54867927723319,12,45.256568908691406,569.6390457115567,0.15,25,187352.32415674135,0.0008821396622806787,1575420030,,,,0,,1,37.066368103027344,40.256568908691406,-0.291038307285575,1.0,-0.291038307285575,1.0,C,73649282915520
Raw,1714922049999,320893000000,,,-1398956947106669764,0.0,5.714739678683108,1005.0,1.0,1112,3,0.0,16384,54867919753854,1000000000,12.0,-153.82646413670454,299792458,16,-54269.140876304446,340282346638528860000000000000000000000,1176450050,,,,1,,1,28.300186157226562,7.0,5.151378111026817,7.671281903963041,5.151378111026817,1.0,Q,73649282915520
Raw,1714922049999,320893000000,,,-1398956947106669764,0.0,5.714739678683108,1005.0,1.0,1112,8,0.0,16384,54867930122955,1000000000,12.0,435.5016758835145,299792458,16,141411.78141973403,340282346638528860000000000000000000000,1176450050,,,,1,,1,28.300186157226562,7.0,6.839399860850318,7.671281903963041,6.839399860850318,1.0,Q,73649282915520
Raw,1714922049999,320893000000,,,-1398956947106669764,0.0,5.714739678683108,1005.0,1.0,1112,10,0.0,16384,54867923120867,1000000000,12.0,718.3323510713608,299792458,16,243622.12147953064,340282346638528860000000000000000000000,1176450050,,,,1,,1,28.300186157226562,7.0,11.030352002693805,7.671281903963041,11.030352002693805,1.0,Q,73649282915520
Raw,1714922049999,320893000000,,,-1398956947106669764,0.0,5.714739678683108,1005.0,1.0,1112,27,0.0,16384,54867927226759,1000000000,12.262182235717773,827.9257851538055,299792458,16,277034.5255833118,340282346638528860000000000000000000000,1176450050,,,,1,,1,28.300186157226562,7.262182235717773,5.675246929937559,7.671281903963041,5.675246929937559,1.0,Q,73649282915520
Raw,1714922049999,320893000000,,,-1398956947106669764,0.0,5.714739678683108,1005.0,1.0,1112,32,0.0,16384,54867927723295,1000000000,12.0,569.4027861229406,299792458,16,187542.68658843628,340282346638528860000000000000000000000,1176450050,,,,0,,1,28.300186157226562,7.0,9.051291224863338,7.671281903963041,9.051291224863338,1.0,Q,73649282915520
Raw,1714922049999,320893000000,,,-1398956947106669764,0.0,5.714739678683108,1005.0,1.0,1112,18,0.0,32768,65649934673570,1000000000,12.0,76.50313491024156,299792458,16,17951.27108691802,340282346638528860000000000000000000000,1600312450,,,,1,,3,52.77764129638672,7.0,14.901161193847656,2.0000000474974513,14.901161193847656,2.0000000474974513,C,73649282915520
Raw,1714922049999,320893000000,,,-1398956947106669764,0.0,5.714739678683108,1005.0,1.0,1112,17,0.0,32768,65649930752085,1000000000,12.463691711425781,694.9481731563214,299792458,16,197617.72352490545,340282346638528860000000000000000000000,1604249980,,,,1,,3,52.77764129638672,7.463691711425781,14.901161193847656,2.0000000474974513,14.901161193847656,2.0000000474974513,C,73649282915520
Raw,1714922049999,320893000000,,,-1398956947106669764,0.0,5.714739678683108,1005.0,1.0,1112,3,0.0,32768,65649934924920,1000000000,12.0,562.2462541496504,299792458,16,158344.87727589108,340282346638528860000000000000000000000,1604812540,,,,1,,3,52.77764129638672,7.0,14.901161193847656,2.0000000474974513,14.901161193847656,2.0000000474974513,C,73649282915520
Raw,1714922049999,320893000000,,,-1398956947106669764,0.0,5.714739678683108,1005.0,1.0,1112,4,0.0,32960,65649930145847,1000000000,12.0,-132.13643140865867,299792458,16,-55912.309708220084,340282346638528860000000000000000000000,1605374980,,,,1,,3,52.77764129638672,7.0,14.901161193847656,2.0000000474974513,14.901161193847656,2.0000000474974513,C,73649282915520
Raw,1714922049999,320893000000,,,-1398956947106669764,0.0,5.714739678683108,1005.0,1.0,1112,6,0.0,16384,54853869363191,1000000000,24.560897827148438,62.89363085335455,299792458,16,16649.07585279807,340282346638528860000000000000000000000,1561097980,,,,0,,5,46.276275634765625,19.560897827148438,16.385456547141075,2.500692349107121,16.385456547141075,1.5000000237487257,C,73649282915520
Raw,1714922049999,320893000000,,,-1398956947106669764,0.0,5.714739678683108,1005.0,1.0,1112,9,0.0,16384,54853867326270,1000000000,12.0,26.605779514787343,299792458,16,6754.699942121375,340282346638528860000000000000000000000,1561097980,,,,1,,5,46.276275634765625,7.0,16.385456547141075,2.500692349107121,16.385456547141075,1.5000000237487257,C,73649282915520
Raw,1714922049999,320893000000,,,-1398956947106669764,0.0,5.714739678683108,1005.0,1.0,1112,11,0.0,16384,54853915740536,1000000000,12.0,-267.1675028910279,299792458,16,-77271.99027031865,340282346638528860000000000000000000000,1561097980,,,,1,,5,46.276275634765625,7.0,16.385456547141075,2.500692349107121,16.385456547141075,1.5000000237487257,C,73649282915520
Raw,1714922049999,320893000000,,,-1398956947106669764,0.0,5.714739678683108,1005.0,1.0,1112,12,0.0,16384,54853926787843,1000000000,12.0,109.7915894846683,299792458,16,26927.20170423206,340282346638528860000000000000000000000,1561097980,,,,0,,5,46.276275634765625,7.0,16.385456547141075,2.500692349107121,16.385456547141075,1.5000000237487257,C,73649282915520
Raw,1714922049999,320893000000,,,-1398956947106669764,0.0,5.714739678683108,1005.0,1.0,1112,16,0.0,16384,54853867352725,1000000000,12.0,106.41919005603512,299792458,16,29356.241312190654,340282346638528860000000000000000000000,1561097980,,,,0,,5,46.276275634765625,7.0,16.385456547141075,2.500692349107121,16.385456547141075,1.5000000237487257,C,73649282915520
Raw,1714922049999,320893000000,,,-1398956947106669764,0.0,5.714739678683108,1005.0,1.0,1112,21,0.0,16384,54853925767941,1000000000,12.0,166.37293211433803,299792458,16,42213.26404189838,340282346638528860000000000000000000000,1561097980,,,,1,,5,46.276275634765625,7.0,16.385456547141075,2.500692349107121,16.385456547141075,1.5000000237487257,C,73649282915520
Raw,1714922049999,320893000000,,,-1398956947106669764,0.0,5.714739678683108,1005.0,1.0,1112,22,0.0,16384,54853924060750,1000000000,12.0,687.5957011404817,299792458,16,198162.56909908593,340282346638528860000000000000000000000,1561097980,,,,1,,5,46.276275634765625,7.0,16.385456547141075,2.500692349107121,16.385456547141075,1.5000000237487257,C,73649282915520
Raw,1714922049999,320893000000,,,-1398956947106669764,0.0,5.714739678683108,1005.0,1.0,1112,34,0.0,16384,54853922479405,1000000000,12.0,-142.01408966950174,299792458,16,-43412.623793711755,340282346638528860000000000000000000000,1561097980,,,,1,,5,46.276275634765625,7.0,16.385456547141075,2.500692349107121,16.385456547141075,1.5000000237487257,C,73649282915520
Raw,1714922049999,320893000000,,,-1398956947106669764,0.0,5.714739678683108,1005.0,1.0,1112,3,0.0,83968,54867915576890,1000000000,12.0,-189.17970209219618,299792458,16,-59596.98890869428,340282346638528860000000000000000000000,1575420030,,,,0,,6,37.066368103027344,7.0,-1.2805685400962827,1.5000000237487257,-1.2805685400962827,1.5000000237487257,C,73649282915520
Raw,1714922049999,320893000000,,,-1398956947106669764,0.0,5.714739678683108,1005.0,1.0,1112,5,0.0,83968,54867925817216,1000000000,12.0,255.64291216608956,299792458,16,70747.4912522395,340282346638528860000000000000000000000,1575420030,,,,0,,6,37.066368103027344,7.0,-1.2805685400962827,1.5000000237487257,-1.2805685400962827,1.5000000237487257,C,73649282915520
Raw,1714922049999,320893000000,,,-1398956947106669764,0.0,5.714739678683108,1005.0,1.0,1112,9,0.0,83968,54867911492478,1000000000,12.0,726.2712458341321,299792458,16,207768.39209712826,340282346638528860000000000000000000000,1575420030,,,,0,,6,37.066368103027344,7.0,-1.2805685400962827,1.5000000237487257,-1.2805685400962827,1.5000000237487257,C,73649282915520
Raw,1714922049999,320893000000,,,-1398956947106669764,0.0,5.714739678683108,1005.0,1.0,1112,15,0.0,83968,54867910117534,1000000000,12.0,-89.11318371051834,299792458,16,-25097.380036561768,340282346638528860000000000000000000000,1575420030,,,,0,,6,37.066368103027344,7.0,-1.2805685400962827,1.5000000237487257,-1.2805685400962827,1.5000000237487257,C,73649282915520
Raw,1714922049999,320893000000,,,-1398956947106669764,0.0,5.714739678683108,1005.0,1.0,1112,30,0.0,16384,54867907556859,1000000000,20.293743133544922,670.9469664483931,299792458,16,9.989475997792724,340282346638528860000000000000000000000,1575420030,,,,0,,6,37.066368103027344,15.293743133544922,-1.2805685400962827,1.5000000237487257,-1.2805685400962827,1.5000000237487257,C,73649282915520
Raw,1714922049999,320893000000,,,-1398956947106669764,0.0,5.714739678683108,1005.0,1.0,1112,34,0.0,83968,54867919896174,1000000000,12.0,127.17161440513848,299792458,16,36172.42702911312,340282346638528860000000000000000000000,1575420030,,,,0,,6,37.066368103027344,7.0,-1.2805685400962827,1.5000000237487257,-1.2805685400962827,1.5000000237487257,C,73649282915520
Raw,1714922049999,320893000000,,,-1398956947106669764,0.0,5.714739678683108,1005.0,1.0,1112,36,0.0,83968,54867916135831,1000000000,12.0,487.893773369683,299792458,16,140488.7336280586,340282346638528860000000000000000000000,1575420030,,,,0,,6,37.066368103027344,7.0,-1.2805685400962827,1.5000000237487257,-1.2805685400962827,1.5000000237487257,C,73649282915520
Raw,1714922049999,320893000000,,,-1398956947106669764,0.0,5.714739678683108,1005.0,1.0,1112,3,0.0,16384,54867915576856,1000000000,12.0,-189.253746228992,299792458,16,-59457.46353188772,340282346638528860000000000000000000000,1176450050,,,,0,,6,28.300186157226562,7.0,-2.2040912881493564,8.171281927711767,-2.2040912881493564,1.5000000237487257,Q,73649282915520
Raw,1714922049999,320893000000,,,-1398956947106669764,0.0,5.714739678683108,1005.0,1.0,1112,5,0.0,16384,54867925817193,1000000000,14.020147323608398,255.19447224439068,299792458,16,70702.02549331858,340282346638528860000000000000000000000,1176450050,,,,1,,6,28.300186157226562,9.020147323608398,-2.5735003873705855,8.171281927711767,-2.5735003873705855,1.5000000237487257,Q,73649282915520
Raw,1714922049999,320893000000,,,-1398956947106669764,0.0,5.714739678683108,1005.0,1.0,1112,9,0.0,16384,54867911492453,1000000000,12.0,726.1063549094747,299792458,16,207725.6332626449,340282346638528860000000000000000000000,1176450050,,,,1,,6,28.300186157226562,7.0,-0.9111594408750534,8.171281927711767,-0.9111594408750534,1.5000000237487257,Q,73649282915520
Raw,1714922049999,320893000000,,,-1398956947106669764,0.0,5.714739678683108,1005.0,1.0,1112,15,0.0,16384,54867910117487,1000000000,12.0,-88.8764469675109,299792458,16,-25089.960627450226,340282346638528860000000000000000000000,1176450050,,,,1,,6,28.300186157226562,7.0,-3.866432234644889,8.171281927711767,-3.866432234644889,1.5000000237487257,Q,73649282915520
Raw,1714922049999,320893000000,,,-1398956947106669764,0.0,5.714739678683108,1005.0,1.0,1112,34,0.0,16384,54867919896152,1000000000,12.0,127.00367310062234,299792458,16,36136.052914843036,340282346638528860000000000000000000000,1176450050,,,,1,,6,28.300186157226562,7.0,-3.1276140362024303,8.171281927711767,-3.1276140362024303,1.5000000237487257,Q,73649282915520
Raw,1714922049999,320893000000,,,-1398956947106669764,0.0,5.714739678683108,1005.0,1.0,1112,36,0.0,16384,54867916135803,1000000000,16.637447357177734,487.5937795873692,299792458,16,140451.8986667036,340282346638528860000000000000000000000,1176450050,,,,0,,6,28.300186157226562,11.637447357177734,-4.789954982697963,8.171281927711767,-4.789954982697963,1.5000000237487257,Q,73649282915520
Status,1714922048999,12,0,1,32,1575449980,49.38,62.0,58.0,1,1,1,44.38416
Status,1714922048999,12,1,1,8,1575449980,49.38,249.0,58.0,1,1,1,44.37968
Status,1714922048999,12,2,1,21,1575449980,49.42,324.0,48.0,1,1,1,44.42376
Status,1714922048999,12,3,3,17,1604249980,12.46,126.0,45.0,0,1,1,7.4636917
Status,1714922048999,12,4,1,27,1575449980,49.38,190.0,45.0,1,1,1,44.379227
Status,1714922048999,12,5,1,10,1575449980,49.38,47.0,34.0,1,1,1,44.378986
Status,1714922048999,12,6,1,2,1575449980,49.40,316.0,31.0,1,1,1,44.396656
Status,1714922048999,12,7,5,6,1575449980,24.56,85.0,29.0,0,1,1,19.560898
Status,1714922048999,12,8,1,28,1575449980,49.38,129.0,17.0,1,1,1,44.38269
Status,1714922048999,12,9,1,3,1575449980,49.41,260.0,12.0,1,1,1,44.412838
Status,1714922048999,12,10,6,30,1575449980,20.29,254.0,9.0,0,1,1,15.293743
Status,1714922048999,12,11,1,31,1575449980,49.39,157.0,6.0,1,1,1,44.385487
Fix,GPS,30.0841882576,31.3515870268,187.6602885826337,0.0,4.0,,1714922049999,0.10557778,,73649400150712,3.0,0,,,
Fix,FLP,30.0841883000,31.3515870000,703.0,0.000000000000000007899916,5.882,,1714922051215,0.10557778,,73649400150712,2.6439068,0,,,
Status,1714922049999,12,0,1,8,1575449980,48.91,249.0,63.0,1,1,1,43.90604
Status,1714922049999,12,1,1,32,1575449980,48.90,60.0,53.0,1,1,1,43.90473
Status,1714922049999,12,2,1,27,1575449980,48.90,183.0,48.0,1,1,1,43.902473
Status,1714922049999,12,3,1,21,1575449980,48.95,328.0,48.0,1,1,1,43.950394
Status,1714922049999,12,4,3,17,1604249980,12.45,119.0,43.0,0,1,1,7.448184
Status,1714922049999,12,5,1,2,1575449980,48.91,318.0,32.0,1,1,1,43.91303
Status,1714922049999,12,6,1,10,1575449980,48.90,46.0,30.0,1,1,1,43.904106
Status,1714922049999,12,7,5,6,1575449980,25.88,82.0,26.0,0,1,1,20.881628
Status,1714922049999,12,8,5,11,1575449980,19.80,320.0,18.0,0,1,1,14.801387
Status,1714922049999,12,9,1,28,1575449980,48.91,125.0,15.0,1,1,1,43.911312
Status,1714922049999,12,10,1,3,1575449980,48.95,259.0,15.0,1,1,1,43.947163
Status,1714922049999,12,11,1,31,1575449980,48.91,154.0,6.0,1,1,1,43.91456
Raw,1714922050999,321893000000,,,-1398956947106668760,0.0,7.580854964722704,1003.0,1.0,1112,2,0.0,16431,54868922549497,12,44.56039810180664,-145.19053201435702,0.15,25,-49545.89321174756,0.0009557532030157745,1575420030,,,,1,,1,37.993743896484375,39.56039810180664,0.0,1.0,0.0,1.0,C,73650281427634
Raw,1714922050999,321893000000,,,-1398956947106668760,0.0,7.580854964722704,1003.0,1.0,1112,3,0.0,16431,54868919754358,12,44.75608444213867,-153.58277457256645,0.15,25,-54323.36631965071,0.0009344618301838636,1575420030,,,,1,,1,37.993743896484375,39.75608444213867,0.5529727912983312,1.0,0.5529727912983312,1.0,C,73650281427634
Raw,1714922050999,321893000000,,,-1398956947106668760,0.0,7.580854964722704,1003.0,1.0,1112,8,0.0,16431,54868930121464,12,44.643280029296875,436.53880503550363,0.15,25,141741.25874671558,0.0009466768242418766,1575420030,,,,1,,1,37.993743896484375,39.643280029296875,-1.0477379360510244,1.0,-1.0477379360510244,1.0,C,73650281427634
Raw,1714922050999,321893000000,,,-1398956947106668760,0.0,7.580854964722704,1003.0,1.0,1112,10,0.0,16431,54868923118426,12,44.63017272949219,718.196771059313,0.15,25,244032.32403518178,0.0009481064626015723,1575420030,,,,1,,1,37.993743896484375,39.63017272949219,-0.8149072504586254,1.0,-0.8149072504586254,1.0,C,73650281427634
Raw,1714922050999,321893000000,,,-1398956947106668760,0.0,7.580854964722704,1003.0,1.0,1112,16,0.0,16431,54868913043531,12,44.65830993652344,744.8941045729348,0.15,25,249206.41542781307,0.0009450400248169899,1575420030,,,,1,,1,37.993743896484375,39.65830993652344,0.0,1.0,0.0,1.0,C,73650281427634
Raw,1714922050999,321893000000,,,-1398956947106668760,0.0,7.580854964722704,1003.0,1.0,1112,21,0.0,16431,54868926771065,12,44.69010925292969,-2.367242816092748,0.15,25,-2158.322140758283,0.0009415866225026548,1575420030,,,,1,,1,37.993743896484375,39.69010925292969,0.0,1.0,0.0,1.0,C,73650281427634
Raw,1714922050999,321893000000,,,-1398956947106668760,0.0,7.580854964722704,1003.0,1.0,1112,23,0.0,16385,54868915007753,17,44.92174530029297,796.6335230166915,0.15,16,468.44304403068344,340282346638528860000000000000000000000,1575420030,,,,0,,1,37.993743896484375,39.92174530029297,-0.20372681261465636,1.0,-0.20372681261465636,1.0,C,73650281427634
Raw,1714922050999,321893000000,,,-1398956947106668760,0.0,7.580854964722704,1003.0,1.0,1112,27,0.0,16431,54868927223957,12,44.61170959472656,828.890250508488,0.15,25,277533.4923015969,0.000950123998336494,1575420030,,,,1,,1,37.993743896484375,39.61170959472656,-0.9022187202770824,1.0,-0.9022187202770824,1.0,C,73650281427634
Raw,1714922050999,321893000000,,,-1398956947106668760,0.0,7.580854964722704,1003.0,1.0,1112,28,0.0,16431,54868918919896,12,44.668907165527344,-140.61602730293606,0.15,25,-48787.2420507949,0.0009438877459615469,1575420030,,,,1,,1,37.993743896484375,39.668907165527344,-0.34924595383121304,1.0,-0.34924595383121304,1.0,C,73650281427634
Raw,1714922050999,321893000000,,,-1398956947106668760,0.0,7.580854964722704,1003.0,1.0,1112,31,0.0,16431,54868915965917,12,44.67619323730469,-209.1841954535206,0.15,25,-67018.56182597086,0.0009430962381884456,1575420030,,,,1,,1,37.993743896484375,39.67619323730469,-0.2619344840127561,1.0,-0.2619344840127561,1.0,C,73650281427634
Raw,1714922050999,321893000000,,,-1398956947106668760,0.0,7.580854964722704,1003.0,1.0,1112,32,0.0,16431,54868927721359,12,44.58988952636719,570.2062800354659,0.15,25,187922.19862444562,0.0009525137720629573,1575420030,,,,1,,1,37.993743896484375,39.58988952636719,-0.291038307285575,1.0,-0.291038307285575,1.0,C,73650281427634
Raw,1714922050999,321893000000,,,-1398956947106668760,0.0,7.580854964722704,1003.0,1.0,1112,3,0.0,16384,54868919754348,1000000000,12.0,-153.54969754851106,299792458,16,-54423.34444087714,340282346638528860000000000000000000000,1176450050,,,,1,,1,28.544876098632812,7.0,5.151378111026817,7.671281903963041,5.151378111026817,1.0,Q,73650281427634
Raw,1714922050999,321893000000,,,-1398956947106668760,0.0,7.580854964722704,1003.0,1.0,1112,8,0.0,16384,54868930121500,1000000000,12.0,436.006675641813,299792458,16,141847.79320793433,340282346638528860000000000000000000000,1176450050,,,,1,,1,28.544876098632812,7.0,6.839399860850318,7.671281903963041,6.839399860850318,1.0,Q,73650281427634
Raw,1714922050999,321893000000,,,-1398956947106668760,0.0,7.580854964722704,1003.0,1.0,1112,10,0.0,16384,54868923118472,1000000000,12.0,717.8710791047811,299792458,16,244339.99121082237,340282346638528860000000000000000000000,1176450050,,,,1,,1,28.544876098632812,7.0,11.030352002693805,7.671281903963041,11.030352002693805,1.0,Q,73650281427634
Raw,1714922050999,321893000000,,,-1398956947106668760,0.0,7.580854964722704,1003.0,1.0,1112,27,0.0,16384,54868927223996,1000000000,12.0,828.5036191216932,299792458,16,277863.0333706448,340282346638528860000000000000000000000,1176450050,,,,1,,1,28.544876098632812,7.0,5.675246929937559,7.671281903963041,5.675246929937559,1.0,Q,73650281427634
Raw,1714922050999,321893000000,,,-1398956947106668760,0.0,7.580854964722704,1003.0,1.0,1112,32,0.0,16384,54868927721395,1000000000,12.77583122253418,569.6358760431001,299792458,16,188112.32445674142,340282346638528860000000000000000000000,1176450050,,,,1,,1,28.544876098632812,7.77583122253418,9.051291224863338,7.671281903963041,9.051291224863338,1.0,Q,73650281427634
Raw,1714922050999,321893000000,,,-1398956947106668760,0.0,7.580854964722704,1003.0,1.0,1112,18,0.0,32768,65650934674379,1000000000,12.0,76.68572315044838,299792458,16,18027.356433787227,340282346638528860000000000000000000000,1600312450,,,,1,,3,52.642974853515625,7.0,14.901161193847656,2.0000000474974513,14.901161193847656,2.0000000474974513,C,73650281427634
Raw,1714922050999,321893000000,,,-1398956947106668760,0.0,7.580854964722704,1003.0,1.0,1112,17,0.0,32768,65650930749887,1000000000,12.308614730834961,695.0392414801504,299792458,16,198312.49252693224,340282346638528860000000000000000000000,1604249980,,,,1,,3,52.642974853515625,7.308614730834961,14.901161193847656,2.0000000474974513,14.901161193847656,2.0000000474974513,C,73650281427634
Raw,1714922050999,321893000000,,,-1398956947106668760,0.0,7.580854964722704,1003.0,1.0,1112,3,0.0,32768,65650934923041,1000000000,12.0,562.3372883910229,299792458,16,158906.70252847247,340282346638528860000000000000000000000,1604812540,,,,1,,3,52.642974853515625,7.0,14.901161193847656,2.0000000474974513,14.901161193847656,2.0000000474974513,C,73650281427634
Raw,1714922050999,321893000000,,,-1398956947106668760,0.0,7.580854964722704,1003.0,1.0,1112,4,0.0,32960,65650930146292,1000000000,12.0,-132.04543124974276,299792458,16,-56044.862578085835,340282346638528860000000000000000000000,1605374980,,,,1,,3,52.642974853515625,7.0,14.901161193847656,2.0000000474974513,14.901161193847656,2.0000000474974513,C,73650281427634
Raw,1714922050999,321893000000,,,-1398956947106668760,0.0,7.580854964722704,1003.0,1.0,1112,6,0.0,16384,54854869362994,1000000000,25.881628036499023,62.07649543760604,299792458,16,16710.054344446897,340282346638528860000000000000000000000,1561097980,,,,1,,5,47.14895248413086,20.881628036499023,16.385456547141075,2.500692349107121,16.385456547141075,1.5000000237487257,C,73650281427634
Raw,1714922050999,321893000000,,,-1398956947106668760,0.0,7.580854964722704,1003.0,1.0,1112,9,0.0,16384,54854867326184,1000000000,12.0,26.605779514787343,299792458,16,6780.561526849444,340282346638528860000000000000000000000,1561097980,,,,1,,5,47.14895248413086,7.0,16.385456547141075,2.500692349107121,16.385456547141075,1.5000000237487257,C,73650281427634
Raw,1714922050999,321893000000,,,-1398956947106668760,0.0,7.580854964722704,1003.0,1.0,1112,11,0.0,16384,54854915741429,1000000000,19.358736038208008,-267.1675028910279,299792458,16,-77539.19118892412,340282346638528860000000000000000000000,1561097980,,,,1,,5,47.14895248413086,14.358736038208008,16.385456547141075,2.500692349107121,16.385456547141075,1.5000000237487257,C,73650281427634
Raw,1714922050999,321893000000,,,-1398956947106668760,0.0,7.580854964722704,1003.0,1.0,1112,12,0.0,16384,54854926787477,1000000000,12.0,110.16629201168007,299792458,16,27036.625283405152,340282346638528860000000000000000000000,1561097980,,,,0,,5,47.14895248413086,7.0,16.385456547141075,2.500692349107121,16.385456547141075,1.5000000237487257,C,73650281427634
Raw,1714922050999,321893000000,,,-1398956947106668760,0.0,7.580854964722704,1003.0,1.0,1112,16,0.0,16384,54854867352369,1000000000,12.0,106.41919005603512,299792458,16,29462.28840188619,340282346638528860000000000000000000000,1561097980,,,,0,,5,47.14895248413086,7.0,16.385456547141075,2.500692349107121,16.385456547141075,1.5000000237487257,C,73650281427634
Raw,1714922050999,321893000000,,,-1398956947106668760,0.0,7.580854964722704,1003.0,1.0,1112,21,0.0,16384,54854925767457,1000000000,12.0,166.7476346413498,299792458,16,42379.267832039106,340282346638528860000000000000000000000,1561097980,,,,1,,5,47.14895248413086,7.0,16.385456547141075,2.500692349107121,16.385456547141075,1.5000000237487257,C,73650281427634
Raw,1714922050999,321893000000,,,-1398956947106668760,0.0,7.580854964722704,1003.0,1.0,1112,22,0.0,16384,54854924058428,1000000000,12.0,687.5957011404817,299792458,16,198849.79156933172,340282346638528860000000000000000000000,1561097980,,,,0,,5,47.14895248413086,7.0,16.385456547141075,2.500692349107121,16.385456547141075,1.5000000237487257,C,73650281427634
Raw,1714922050999,321893000000,,,-1398956947106668760,0.0,7.580854964722704,1003.0,1.0,1112,34,0.0,16384,54854922479883,1000000000,12.0,-142.01408966950174,299792458,16,-43555.38583570664,340282346638528860000000000000000000000,1561097980,,,,1,,5,47.14895248413086,7.0,16.385456547141075,2.500692349107121,16.385456547141075,1.5000000237487257,C,73650281427634
Raw,1714922050999,321893000000,,,-1398956947106668760,0.0,7.580854964722704,1003.0,1.0,1112,3,0.0,83968,54868915577526,1000000000,12.0,-189.7366605554637,299792458,16,-59786.73913731756,340282346638528860000000000000000000000,1575420030,,,,0,,6,37.993743896484375,7.0,-1.2805685400962827,1.5000000237487257,-1.2805685400962827,1.5000000237487257,C,73650281427634
Raw,1714922050999,321893000000,,,-1398956947106668760,0.0,7.580854964722704,1003.0,1.0,1112,5,0.0,83968,54868925816362,1000000000,12.0,255.27161788473006,299792458,16,71002.72359770988,340282346638528860000000000000000000000,1575420030,,,,0,,6,37.993743896484375,7.0,-1.2805685400962827,1.5000000237487257,-1.2805685400962827,1.5000000237487257,C,73650281427634
Raw,1714922050999,321893000000,,,-1398956947106668760,0.0,7.580854964722704,1003.0,1.0,1112,9,0.0,83968,54868911490055,1000000000,12.0,725.7142021647232,299792458,16,208494.0928004087,340282346638528860000000000000000000000,1575420030,,,,0,,6,37.993743896484375,7.0,-1.2805685400962827,1.5000000237487257,-1.2805685400962827,1.5000000237487257,C,73650281427634
Raw,1714922050999,321893000000,,,-1398956947106668760,0.0,7.580854964722704,1003.0,1.0,1112,15,0.0,83968,54868910117837,1000000000,12.0,-89.67014217378585,299792458,16,-25187.050178759546,340282346638528860000000000000000000000,1575420030,,,,0,,6,37.993743896484375,7.0,-1.2805685400962827,1.5000000237487257,-1.2805685400962827,1.5000000237487257,C,73650281427634
Raw,1714922050999,321893000000,,,-1398956947106668760,0.0,7.580854964722704,1003.0,1.0,1112,30,0.0,16384,54868907554624,1000000000,12.0,670.2043778856741,299792458,16,10.00004011790324,340282346638528860000000000000000000000,1575420030,,,,0,,6,37.993743896484375,7.0,-1.2805685400962827,1.5000000237487257,-1.2805685400962827,1.5000000237487257,C,73650281427634
Raw,1714922050999,321893000000,,,-1398956947106668760,0.0,7.580854964722704,1003.0,1.0,1112,34,0.0,83968,54868919895752,1000000000,12.0,126.61465594187098,299792458,16,36299.04168436634,340282346638528860000000000000000000000,1575420030,,,,0,,6,37.993743896484375,7.0,-1.2805685400962827,1.5000000237487257,-1.2805685400962827,1.5000000237487257,C,73650281427634
Raw,1714922050999,321893000000,,,-1398956947106668760,0.0,7.580854964722704,1003.0,1.0,1112,36,0.0,83968,54868916134206,1000000000,12.0,487.33683194764376,299792458,16,140976.05692415894,340282346638528860000000000000000000000,1575420030,,,,0,,6,37.993743896484375,7.0,-1.2805685400962827,1.5000000237487257,-1.2805685400962827,1.5000000237487257,C,73650281427634
Raw,1714922050999,321893000000,,,-1398956947106668760,0.0,7.580854964722704,1003.0,1.0,1112,3,0.0,16384,54868915577488,1000000000,12.0,-189.253746228992,299792458,16,-59646.717282662226,340282346638528860000000000000000000000,1176450050,,,,1,,6,28.544876098632812,7.0,-2.2040912881493564,8.171281927711767,-2.2040912881493564,1.5000000237487257,Q,73650281427634
Raw,1714922050999,321893000000,,,-1398956947106668760,0.0,7.580854964722704,1003.0,1.0,1112,5,0.0,16384,54868925816341,1000000000,12.0,255.45182887359442,299792458,16,70957.47869643317,340282346638528860000000000000000000000,1176450050,,,,1,,6,28.544876098632812,7.0,-2.5735003873705855,8.171281927711767,-2.5735003873705855,1.5000000237487257,Q,73650281427634
Raw,1714922050999,321893000000,,,-1398956947106668760,0.0,7.580854964722704,1003.0,1.0,1112,9,0.0,16384,54868911490028,1000000000,12.981595993041992,726.227756619609,299792458,16,208452.1236208787,340282346638528860000000000000000000000,1176450050,,,,1,,6,28.544876098632812,7.981595993041992,-0.9111594408750534,8.171281927711767,-0.9111594408750534,1.5000000237487257,Q,73650281427634
Raw,1714922050999,321893000000,,,-1398956947106668760,0.0,7.580854964722704,1003.0,1.0,1112,15,0.0,16384,54868910117785,1000000000,12.0,-89.18721080608589,299792458,16,-25179.15093883829,340282346638528860000000000000000000000,1176450050,,,,1,,6,28.544876098632812,7.0,-3.866432234644889,8.171281927711767,-3.866432234644889,1.5000000237487257,Q,73650281427634
Raw,1714922050999,321893000000,,,-1398956947106668760,0.0,7.580854964722704,1003.0,1.0,1112,34,0.0,16384,54868919895728,1000000000,12.0,127.10563928992445,299792458,16,36263.16049417377,340282346638528860000000000000000000000,1176450050,,,,1,,6,28.544876098632812,7.0,-3.1276140362024303,8.171281927711767,-3.1276140362024303,1.5000000237487257,Q,73650281427634
Raw,1714922050999,321893000000,,,-1398956947106668760,0.0,7.580854964722704,1003.0,1.0,1112,36,0.0,16384,54868916134183,1000000000,12.0,488.0890317631022,299792458,16,140939.82565825668,340282346638528860000000000000000000000,1176450050,,,,0,,6,28.544876098632812,7.0,-4.789954982697963,8.171281927711767,-4.789954982697963,1.5000000237487257,Q,73650281427634
Fix,GPS,30.0841882576,31.3515870268,187.6531386886288,0.0,4.0,,1714922050999,0.116238624,,73650384356442,3.0,0,,,
Fix,FLP,30.0841883000,31.3515870000,703.0,0.000000000000000007899916,5.613,,1714922052199,0.116238624,,73650384356442,2.7185206,0,,,
Status,1714922050999,13,0,5,12,1575449980,19.09,328.0,73.0,0,1,1,14.087962
Status,1714922050999,13,1,1,8,1575449980,48.23,249.0,63.0,1,1,1,43.228065
Status,1714922050999,13,2,1,32,1575449980,48.24,60.0,53.0,1,1,1,43.23729
Status,1714922050999,13,3,1,27,1575449980,48.22,183.0,48.0,1,1,1,43.218758
Status,1714922050999,13,4,1,21,1575449980,48.28,328.0,48.0,1,1,1,43.28252
Status,1714922050999,13,5,1,2,1575449980,48.24,318.0,32.0,1,1,1,43.243607
Status,1714922050999,13,6,1,10,1575449980,48.22,46.0,30.0,1,1,1,43.221012
Status,1714922050999,13,7,5,6,1575449980,25.86,82.0,26.0,0,1,1,20.858892
Status,1714922050999,13,8,5,11,1575449980,20.05,320.0,18.0,0,1,1,15.049961
Status,1714922050999,13,9,1,28,1575449980,48.25,125.0,15.0,1,1,1,43.24518
Status,1714922050999,13,10,1,3,1575449980,48.26,259.0,15.0,1,1,1,43.262924
Status,1714922050999,13,11,6,30,1575449980,19.88,252.0,13.0,0,1,1,14.880316
Status,1714922050999,13,12,1,31,1575449980,48.25,154.0,6.0,1,1,1,43.24846
Fix,GPS,30.0841882576,31.3515870268,187.64531813647434,0.0,4.0,,1714922051999,0.1616938,,73651375871249,3.0,0,,,
Raw,1714922051999,322893000000,,,-1398956947106667755,0.0,9.042394441194386,1005.0,1.0,1112,2,0.0,16431,54869922549933,15,42.21879196166992,-145.4180664941033,0.15,25,-49691.23758098556,0.0012514862464740872,1575420030,,,,1,,1,36.94316101074219,37.21879196166992,0.0,1.0,0.0,1.0,C,73651269947288
Raw,1714922051999,322893000000,,,-1398956947106667755,0.0,9.042394441194386,1005.0,1.0,1112,3,0.0,16431,54869919754840,15,42.104774475097656,-153.77554494665947,0.15,25,-54477.0541591299,0.0012680228101089597,1575420030,,,,1,,1,36.94316101074219,37.104774475097656,0.5529727912983312,1.0,0.5529727912983312,1.0,C,73651269947288
Raw,1714922051999,322893000000,,,-1398956947106667755,0.0,9.042394441194386,1005.0,1.0,1112,8,0.0,16431,54869930119976,15,42.12629318237305,436.43993182913096,0.15,25,142177.71472501333,0.0012648850679397583,1575420030,,,,1,,1,36.94316101074219,37.12629318237305,-1.0477379360510244,1.0,-1.0477379360510244,1.0,C,73651269947288
Raw,1714922051999,322893000000,,,-1398956947106667755,0.0,9.042394441194386,1005.0,1.0,1112,10,0.0,16431,54869923115996,15,42.07318115234375,717.9464694986095,0.15,25,244750.34668119924,0.0012726433342322707,1575420030,,,,1,,1,36.94316101074219,37.07318115234375,-0.8149072504586254,1.0,-0.8149072504586254,1.0,C,73651269947288
Raw,1714922051999,322893000000,,,-1398956947106667755,0.0,9.042394441194386,1005.0,1.0,1112,16,0.0,16431,54869913041015,15,42.184608459472656,744.6122426574912,0.15,25,249951.16380651257,0.0012564214412122965,1575420030,,,,1,,1,36.94316101074219,37.184608459472656,0.0,1.0,0.0,1.0,C,73651269947288
Raw,1714922051999,322893000000,,,-1398956947106667755,0.0,9.042394441194386,1005.0,1.0,1112,21,0.0,16431,54869926771025,15,42.27165603637695,-2.550802406310474,0.15,25,-2160.7993767339967,0.001243892591446638,1575420030,,,,1,,1,36.94316101074219,37.27165603637695,0.0,1.0,0.0,1.0,C,73651269947288
Raw,1714922051999,322893000000,,,-1398956947106667755,0.0,9.042394441194386,1005.0,1.0,1112,23,0.0,16385,54869915005104,13,42.442752838134766,796.8191360749147,0.15,16,341.02140621962633,340282346638528860000000000000000000000,1575420030,,,,0,,1,36.94316101074219,37.442752838134766,-0.20372681261465636,1.0,-0.20372681261465636,1.0,C,73651269947288
Raw,1714922051999,322893000000,,,-1398956947106667755,0.0,9.042394441194386,1005.0,1.0,1112,27,0.0,16431,54869927221140,15,42.06532669067383,828.6982299484384,0.15,25,278362.2046964725,0.0012737944489344954,1575420030,,,,1,,1,36.94316101074219,37.06532669067383,-0.9022187202770824,1.0,-0.9022187202770824,1.0,C,73651269947288
Raw,1714922051999,322893000000,,,-1398956947106667755,0.0,9.042394441194386,1005.0,1.0,1112,28,0.0,16431,54869918920331,15,42.24999237060547,-140.87218252554737,0.15,25,-48928.02304541057,0.001246999017894268,1575420030,,,,1,,1,36.94316101074219,37.24999237060547,-0.34924595383121304,1.0,-0.34924595383121304,1.0,C,73651269947288
Raw,1714922051999,322893000000,,,-1398956947106667755,0.0,9.042394441194386,1005.0,1.0,1112,31,0.0,16431,54869915966571,15,42.25355529785156,-209.46661972949687,0.15,25,-67227.91106551781,0.0012464874889701605,1575420030,,,,1,,1,36.94316101074219,37.25355529785156,-0.2619344840127561,1.0,-0.2619344840127561,1.0,C,73651269947288
Raw,1714922051999,322893000000,,,-1398956947106667755,0.0,9.042394441194386,1005.0,1.0,1112,32,0.0,16431,54869927719419,15,42.23031997680664,570.1128259396803,0.15,25,188492.33186295364,0.0012498265132308006,1575420030,,,,1,,1,36.94316101074219,37.23031997680664,-0.291038307285575,1.0,-0.291038307285575,1.0,C,73651269947288
Raw,1714922051999,322893000000,,,-1398956947106667755,0.0,9.042394441194386,1005.0,1.0,1112,3,0.0,16384,54869919754864,1000000000,15.665271759033203,-153.70022271774405,299792458,16,-54578.7407373447,340282346638528860000000000000000000000,1176450050,,,,0,,1,28.860761642456055,10.665271759033203,5.151378111026817,7.671281903963041,5.151378111026817,1.0,Q,73651269947288
Raw,1714922051999,322893000000,,,-1398956947106667755,0.0,9.042394441194386,1005.0,1.0,1112,8,0.0,16384,54869930120044,1000000000,12.0,436.1232035606645,299792458,16,142284.11160536972,340282346638528860000000000000000000000,1176450050,,,,1,,1,28.860761642456055,7.0,6.839399860850318,7.671281903963041,6.839399860850318,1.0,Q,73651269947288
Raw,1714922051999,322893000000,,,-1398956947106667755,0.0,9.042394441194386,1005.0,1.0,1112,10,0.0,16384,54869923116078,1000000000,12.977506637573242,717.8710791047811,299792458,16,245057.79112291106,340282346638528860000000000000000000000,1176450050,,,,1,,1,28.860761642456055,7.977506637573242,11.030352002693805,7.671281903963041,11.030352002693805,1.0,Q,73651269947288
Raw,1714922051999,322893000000,,,-1398956947106667755,0.0,9.042394441194386,1005.0,1.0,1112,27,0.0,16384,54869927221232,1000000000,12.0,828.5473128309554,299792458,16,278691.54154247453,340282346638528860000000000000000000000,1176450050,,,,1,,1,28.860761642456055,7.0,5.675246929937559,7.671281903963041,5.675246929937559,1.0,Q,73651269947288
Raw,1714922051999,322893000000,,,-1398956947106667755,0.0,9.042394441194386,1005.0,1.0,1112,32,0.0,16384,54869927719493,1000000000,12.413265228271484,569.7135840439721,299792458,16,188682.2681169871,340282346638528860000000000000000000000,1176450050,,,,1,,1,28.860761642456055,7.413265228271484,9.051291224863338,7.671281903963041,9.051291224863338,1.0,Q,73651269947288
Raw,1714922051999,322893000000,,,-1398956947106667755,0.0,9.042394441194386,1005.0,1.0,1112,18,0.0,32768,65651934674125,1000000000,12.0,76.13796695044203,299792458,16,18104.216222558487,340282346638528860000000000000000000000,1600312450,,,,1,,3,53.169551849365234,7.0,14.901161193847656,2.0000000474974513,14.901161193847656,2.0000000474974513,C,73651269947288
Raw,1714922051999,322893000000,,,-1398956947106667755,0.0,9.042394441194386,1005.0,1.0,1112,17,0.0,32768,65651930747561,1000000000,12.0,694.5838998610056,299792458,16,199007.44009862447,340282346638528860000000000000000000000,1604249980,,,,1,,3,53.169551849365234,7.0,14.901161193847656,2.0000000474974513,14.901161193847656,2.0000000474974513,C,73651269947288
Raw,1714922051999,322893000000,,,-1398956947106667755,0.0,9.042394441194386,1005.0,1.0,1112,3,0.0,32768,65651934921164,1000000000,12.0,561.8821171841607,299792458,16,159469.30521420317,340282346638528860000000000000000000000,1604812540,,,,0,,3,53.169551849365234,7.0,14.901161193847656,2.0000000474974513,14.901161193847656,2.0000000474974513,C,73651269947288
Raw,1714922051999,322893000000,,,-1398956947106667755,0.0,9.042394441194386,1005.0,1.0,1112,4,0.0,32960,65651930146733,1000000000,12.0,-132.50045760616467,299792458,16,-56176.64066366212,340282346638528860000000000000000000000,1605374980,,,,1,,3,53.169551849365234,7.0,14.901161193847656,2.0000000474974513,14.901161193847656,2.0000000474974513,C,73651269947288
Raw,1714922051999,322893000000,,,-1398956947106667755,0.0,9.042394441194386,1005.0,1.0,1112,6,0.0,16384,54855869362772,1000000000,25.654279708862305,61.95071413180861,299792458,16,16773.128208931244,340282346638528860000000000000000000000,1561097980,,,,1,,5,49.77452850341797,20.654279708862305,16.385456547141075,2.500692349107121,16.385456547141075,1.5000000237487257,C,73651269947288
Raw,1714922051999,322893000000,,,-1398956947106667755,0.0,9.042394441194386,1005.0,1.0,1112,9,0.0,16384,54855867326092,1000000000,12.0,25.856357419535527,299792458,16,6807.156835964979,340282346638528860000000000000000000000,1561097980,,,,0,,5,49.77452850341797,7.0,16.385456547141075,2.500692349107121,16.385456547141075,1.5000000237487257,C,73651269947288
Raw,1714922051999,322893000000,,,-1398956947106667755,0.0,9.042394441194386,1005.0,1.0,1112,11,0.0,16384,54855915742318,1000000000,20.04996109008789,-267.5422395004962,299792458,16,-77806.22542313028,340282346638528860000000000000000000000,1561097980,,,,1,,5,49.77452850341797,15.04996109008789,16.385456547141075,2.500692349107121,16.385456547141075,1.5000000237487257,C,73651269947288
Raw,1714922051999,322893000000,,,-1398956947106667755,0.0,9.042394441194386,1005.0,1.0,1112,12,0.0,16384,54855926787108,1000000000,19.087963104248047,109.41687843704239,299792458,16,27146.55081153055,340282346638528860000000000000000000000,1561097980,,,,0,,5,49.77452850341797,14.08796215057373,16.385456547141075,2.500692349107121,16.385456547141075,1.5000000237487257,C,73651269947288
Raw,1714922051999,322893000000,,,-1398956947106667755,0.0,9.042394441194386,1005.0,1.0,1112,16,0.0,16384,54855867352013,1000000000,12.0,106.04447900840921,299792458,16,29568.702353728786,340282346638528860000000000000000000000,1561097980,,,,0,,5,49.77452850341797,7.0,16.385456547141075,2.500692349107121,16.385456547141075,1.5000000237487257,C,73651269947288
Raw,1714922051999,322893000000,,,-1398956947106667755,0.0,9.042394441194386,1005.0,1.0,1112,21,0.0,16384,54855925766897,1000000000,12.0,165.998212546098,299792458,16,42546.007994163796,340282346638528860000000000000000000000,1561097980,,,,1,,5,49.77452850341797,7.0,16.385456547141075,2.500692349107121,16.385456547141075,1.5000000237487257,C,73651269947288
Raw,1714922051999,322893000000,,,-1398956947106667755,0.0,9.042394441194386,1005.0,1.0,1112,22,0.0,16384,54855924056161,1000000000,12.0,687.2209986134699,299792458,16,199537.75749074426,340282346638528860000000000000000000000,1561097980,,,,0,,5,49.77452850341797,7.0,16.385456547141075,2.500692349107121,16.385456547141075,1.5000000237487257,C,73651269947288
Raw,1714922051999,322893000000,,,-1398956947106667755,0.0,9.042394441194386,1005.0,1.0,1112,34,0.0,16384,54855922480356,1000000000,12.0,-142.7635202853677,299792458,16,-43697.40290102497,340282346638528860000000000000000000000,1561097980,,,,1,,5,49.77452850341797,7.0,16.385456547141075,2.500692349107121,16.385456547141075,1.5000000237487257,C,73651269947288
Raw,1714922051999,322893000000,,,-1398956947106667755,0.0,9.042394441194386,1005.0,1.0,1112,3,0.0,83968,54869915578154,1000000000,12.0,-189.17970209219618,299792458,16,-59975.91711171771,340282346638528860000000000000000000000,1575420030,,,,0,,6,36.94316101074219,7.0,-1.2805685400962827,1.5000000237487257,-1.2805685400962827,1.5000000237487257,C,73651269947288
