# 
# Header Description:
# 
# Version: v3.0.6.4 Platform: 13 Manufacturer: samsung Model: SM-G781B
# 
# Raw,utcTimeMillis,TimeNanos,LeapSecond,TimeUncertaintyNanos,FullBiasNanos,BiasNanos,BiasUncertaintyNanos,DriftNanosPerSecond,DriftUncertaintyNanosPerSecond,HardwareClockDiscontinuityCount,Svid,TimeOffsetNanos,State,ReceivedSvTimeNanos,ReceivedSvTimeUncertaintyNanos,Cn0DbHz,PseudorangeRateMetersPerSecond,PseudorangeRateUncertaintyMetersPerSecond,AccumulatedDeltaRangeState,AccumulatedDeltaRangeMeters,AccumulatedDeltaRangeUncertaintyMeters,CarrierFrequencyHz,CarrierCycles,CarrierPhase,CarrierPhaseUncertainty,MultipathIndicator,SnrInDb,ConstellationType,AgcDb,BasebandCn0DbHz,FullInterSignalBiasNanos,FullInterSignalBiasUncertaintyNanos,SatelliteInterSignalBiasNanos,SatelliteInterSignalBiasUncertaintyNanos,CodeType,ChipsetElapsedRealtimeNanos
# 
# UncalAccel,utcTimeMillis,elapsedRealtimeNanos,UncalAccelXMps2,UncalAccelYMps2,UncalAccelZMps2,BiasXMps2,BiasYMps2,BiasZMps2
# 
# Accel,utcTimeMillis,elapsedRealtimeNanos,AccelXMps2,AccelYMps2,AccelZMps2
# 
# UncalGyro,utcTimeMillis,elapsedRealtimeNanos,UncalGyroXRadPerSec,UncalGyroYRadPerSec,UncalGyroZRadPerSec,DriftXRadPerSec,DriftYRadPerSec,DriftZRadPerSec
# 
# Gyro,utcTimeMillis,elapsedRealtimeNanos,GyroXRadPerSec,GyroYRadPerSec,GyroZRadPerSec
# 
# UncalMag,utcTimeMillis,elapsedRealtimeNanos,UncalMagXMicroT,UncalMagYMicroT,UncalMagZMicroT,BiasXMicroT,BiasYMicroT,BiasZMicroT
# 
# Mag,utcTimeMillis,elapsedRealtimeNanos,MagXMicroT,MagYMicroT,MagZMicroT
# 
# OrientationDeg,utcTimeMillis,elapsedRealtimeNanos,yawDeg,rollDeg,pitchDeg
# 
# Fix,Provider,LatitudeDegrees,LongitudeDegrees,AltitudeMeters,SpeedMps,AccuracyMeters,BearingDegrees,UnixTimeMillis,SpeedAccuracyMps,BearingAccuracyDegrees,elapsedRealtimeNanos,VerticalAccuracyMeters,MockLocation,NumberOfUsedSignals,VerticalSpeedAccuracyMps,SolutionType
# 
# Nav,Svid,Type,Status,MessageId,Sub-messageId,Data(Bytes)
# 
# Status,UnixTimeMillis,SignalCount,SignalIndex,ConstellationType,Svid,CarrierFrequencyHz,Cn0DbHz,AzimuthDegrees,ElevationDegrees,UsedInFix,HasAlmanacData,HasEphemerisData,BasebandCn0DbHz
# 
# Agc,utcTimeMillis,TimeNanos,LeapSecond,TimeUncertaintyNanos,FullBiasNanos,BiasNanos,BiasUncertaintyNanos,DriftNanosPerSecond,DriftUncertaintyNanosPerSecond,HardwareClockDiscontinuityCount,AgcDb,CarrierFrequencyHz,ConstellationType
# 
Fix,FLP,33.8182676000,35.4908104000,192.587890625,0.03223998,3.9,,1719424316871,0.086023256,,300559874053418,2.5,0,,,
Status,,41,0,1,3,1575420030,40.80,144.0,27.0,1,1,1,35.8
Status,,41,1,1,4,1575420030,40.90,66.0,41.0,1,1,1,35.9
Status,,41,2,1,6,1575420030,41.00,254.0,29.0,1,1,1,36.0
Status,,41,3,1,7,1575420030,40.90,253.0,68.0,1,1,1,35.9
Status,,41,4,1,9,1575420030,41.00,5.0,63.0,1,1,1,36.0
Status,,41,5,1,11,1575420030,40.60,296.0,20.0,1,1,1,35.6
Status,,41,6,1,16,1575420030,40.70,54.0,23.0,1,1,1,35.7
Status,,41,7,1,20,1575420030,40.90,319.0,8.0,1,1,1,35.9
Status,,41,8,1,30,1575420030,40.70,237.0,33.0,1,1,1,35.7
Status,,41,9,3,2,1599750020,12.60,11.0,56.0,0,1,0,7.6
Status,,41,10,3,18,1600312450,34.30,291.0,12.0,0,1,1,29.3
Status,,41,11,3,12,1601437440,25.30,82.0,70.0,1,1,0,20.3
Status,,41,12,3,11,1602000000,36.30,29.0,18.0,0,1,1,31.3
Status,,41,13,3,1,1602562560,29.70,91.0,37.0,1,1,0,24.7
Status,,41,14,3,13,1600875010,0.00,184.0,45.0,0,1,0,0.0
Status,,41,15,3,19,1603687550,0.00,330.0,4.0,0,1,0,0.0
Status,,41,16,3,3,1604812540,0.00,317.0,19.0,0,1,0,0.0
Status,,41,17,5,12,1561097980,19.80,0.0,0.0,0,1,0,14.8
Status,,41,18,5,10,1561097980,17.20,108.0,14.0,0,1,0,12.2
Status,,41,19,5,2,1561097980,0.00,115.0,25.0,0,1,0,0.0
Status,,41,20,5,3,1561097980,0.00,98.0,2.0,0,1,0,0.0
Status,,41,21,5,5,1561097980,0.00,142.0,43.0,0,1,0,0.0
Status,,41,22,5,6,1561097980,0.00,52.0,16.0,0,1,0,0.0
Status,,41,23,5,7,1561097980,0.00,98.0,13.0,0,1,0,0.0
Status,,41,24,5,9,1561097980,0.00,46.0,32.0,0,1,0,0.0
Status,,41,25,5,16,1561097980,0.00,50.0,14.0,0,1,0,0.0
Status,,41,26,5,19,1561097980,0.00,78.0,68.0,0,1,0,0.0
Status,,41,27,5,20,1561097980,0.00,115.0,23.0,0,1,0,0.0
Status,,41,28,5,22,1561097980,0.00,320.0,45.0,0,1,0,0.0
Status,,41,29,5,36,1561097980,0.00,178.0,66.0,0,1,0,0.0
Status,,41,30,5,37,1561097980,0.00,0.0,0.0,0,1,0,0.0
Status,,41,31,4,194,1575420030,22.70,0.0,0.0,0,1,0,17.7
Status,,41,32,6,4,1575420030,0.00,302.0,39.0,0,1,0,0.0
Status,,41,33,6,10,1575420030,0.00,260.0,32.0,0,1,0,0.0
Status,,41,34,6,11,1575420030,0.00,291.0,26.0,0,1,0,0.0
Status,,41,35,6,12,1575420030,0.00,230.0,30.0,0,1,0,0.0
Status,,41,36,6,19,1575420030,0.00,43.0,56.0,0,1,0,0.0
Status,,41,37,6,21,1575420030,0.00,91.0,43.0,0,1,0,0.0
Status,,41,38,6,27,1575420030,0.00,40.0,13.0,0,1,0,0.0
Status,,41,39,6,33,1575420030,0.00,184.0,4.0,0,1,1,0.0
Status,,41,40,6,36,1575420030,0.00,0.0,0.0,0,1,0,0.0
Raw,1719424317446,291400185000000,18,,-1403168135261562007,0.6456680297851562,29.460670702974312,-5.970090571609696,10.51294044980613,68,3,0.0,16399,323535369921752,9,44.2,633.6082153320312,0.03530000150203705,16,0.0,1902.9177342976868,1575420030,,,,0,,1,1.4,40.800000000000004,0.0,0.0,,,C,300546739844407
Raw,1719424317446,291400185000000,18,,-1403168135261562007,0.6456680297851562,29.460670702974312,-5.970090571609696,10.51294044980613,68,4,0.0,16399,323535374013335,9,44.3,286.2641906738281,0.04280000180006027,16,0.0,1902.9177342976868,1575420030,,,,0,,1,1.4,40.9,0.0,0.0,,,C,300546739844407
Raw,1719424317446,291400185000000,18,,-1403168135261562007,0.6456680297851562,29.460670702974312,-5.970090571609696,10.51294044980613,68,6,0.0,16399,323535370438119,8,44.4,329.2533264160156,0.03620000183582306,16,0.0,1902.9177342976868,1575420030,,,,0,,1,1.4,41.0,0.0,0.0,,,C,300546739844407
Raw,1719424317446,291400185000000,18,,-1403168135261562007,0.6456680297851562,29.460670702974312,-5.970090571609696,10.51294044980613,68,7,0.0,16399,323535376528869,9,44.3,-133.71298217773438,0.04580000042915344,16,0.0,1902.9177342976868,1575420030,,,,0,,1,1.4,40.9,0.0,0.0,,,C,300546739844407
Raw,1719424317446,291400185000000,18,,-1403168135261562007,0.6456680297851562,29.460670702974312,-5.970090571609696,10.51294044980613,68,9,0.0,16399,323535377964836,8,44.4,-47.535133361816406,0.04670000448822975,16,0.0,1902.9177342976868,1575420030,,,,0,,1,1.4,41.0,0.0,0.0,,,C,300546739844407
Raw,1719424317446,291400185000000,18,,-1403168135261562007,0.6456680297851562,29.460670702974312,-5.970090571609696,10.51294044980613,68,11,0.0,16399,323535367032060,9,44.0,-102.64753723144531,0.03229999914765358,16,0.0,1902.9177342976868,1575420030,,,,0,,1,1.4,40.6,0.0,0.0,,,C,300546739844407
Raw,1719424317446,291400185000000,18,,-1403168135261562007,0.6456680297851562,29.460670702974312,-5.970090571609696,10.51294044980613,68,16,0.0,16399,323535369746433,9,44.1,290.9583740234375,0.03530000150203705,16,0.0,1902.9177342976868,1575420030,,,,0,,1,1.4,40.7,0.0,0.0,,,C,300546739844407
Raw,1719424317446,291400185000000,18,,-1403168135261562007,0.6456680297851562,29.460670702974312,-5.970090571609696,10.51294044980613,68,20,0.0,16399,323535363815431,9,44.3,-659.2470703125,0.02630000188946724,16,0.0,1902.9177342976868,1575420030,,,,0,,1,1.4,40.9,0.0,0.0,,,C,300546739844407
Raw,1719424317446,291400185000000,18,,-1403168135261562007,0.6456680297851562,29.460670702974312,-5.970090571609696,10.51294044980613,68,30,0.0,16399,323535370855071,9,44.1,-464.66168212890625,0.03680000081658363,16,0.0,1902.9177342976868,1575420030,,,,0,,1,1.4,40.7,0.0,0.0,,,C,300546739844407
Raw,1719424317446,291400185000000,18,,-1403168135261562007,0.6456680297851562,29.460670702974312,-5.970090571609696,10.51294044980613,68,18,0.0,49359,75117369525261,16,38.3,255.77163696289062,0.04439999908208847,16,0.0,1873.3183770502228,1600312450,,,,0,,3,0.61,34.3,-797011.8125,52.06289291381836,,,C,300546739844407
Raw,1719424317446,291400185000000,18,,-1403168135261562007,0.6456680297851562,29.460670702974312,-5.970090571609696,10.51294044980613,68,12,0.0,49359,75117382614511,46,29.3,74.50643157958984,0.8495000004768372,16,0.0,0.0,1601437440,,,,0,,3,0.61,25.3,-797011.8125,52.06289291381836,,,C,300546739844407
Raw,1719424317446,291400185000000,18,,-1403168135261562007,0.6456680297851562,29.460670702974312,-5.970090571609696,10.51294044980613,68,11,0.0,49359,75117370867872,13,40.3,728.353515625,0.039900001138448715,16,0.0,1871.3450173911542,1602000000,,,,0,,3,0.61,36.3,-797011.8125,52.06289291381836,,,C,300546739844407
Raw,1719424317446,291400185000000,18,,-1403168135261562007,0.6456680297851562,29.460670702974312,-5.970090571609696,10.51294044980613,68,1,0.0,49359,75117376998168,27,33.7,291.0539245605469,0.640500009059906,16,0.0,0.0,1602562560,,,,0,,3,0.61,29.700000000000003,-797011.8125,52.06289291381836,,,C,300546739844407
Raw,1719424317446,291400185000000,18,,-1403168135261562007,0.6456680297851562,29.460670702974312,-5.970090571609696,10.51294044980613,68,10,0.0,16399,323521311914596,1712,21.5,-295.990478515625,10.192999839782715,16,0.0,0.0,1561097980,,,,0,,5,1.55,17.2,0.0,20000.0,,,I,300546739844407
Fix,GPS,33.8182678100,35.4908103200,192.5355224609375,0.0,3.7900925,,1719424318000,0.086023256,,300560872560553,2.5,0,,,
Fix,FLP,33.8182678000,35.4908103000,192.5355224609375,0.027246486,3.9,,1719424317869,0.086023256,,300560872560553,2.5,0,,,
Status,1719424318000,41,0,1,3,1575420030,41.20,144.0,27.0,1,1,1,36.2
Status,1719424318000,41,1,1,4,1575420030,41.10,66.0,41.0,1,1,1,36.1
Status,1719424318000,41,2,1,6,1575420030,41.20,254.0,29.0,1,1,1,36.2
Status,1719424318000,41,3,1,7,1575420030,41.20,253.0,68.0,1,1,1,36.2
Status,1719424318000,41,4,1,9,1575420030,41.30,5.0,63.0,1,1,1,36.3
Status,1719424318000,41,5,1,11,1575420030,41.00,296.0,20.0,1,1,1,36.0
Status,1719424318000,41,6,1,16,1575420030,41.20,54.0,23.0,1,1,1,36.2
Status,1719424318000,41,7,1,20,1575420030,40.80,319.0,8.0,1,1,1,35.8
Status,1719424318000,41,8,1,30,1575420030,41.10,237.0,33.0,1,1,1,36.1
Status,1719424318000,41,9,3,2,1599750020,12.60,11.0,56.0,0,1,0,7.6
Status,1719424318000,41,10,3,18,1600312450,34.30,291.0,12.0,0,1,1,29.3
Status,1719424318000,41,11,3,12,1601437440,25.90,82.0,70.0,1,1,0,20.9
Status,1719424318000,41,12,3,11,1602000000,36.60,29.0,18.0,0,1,1,31.6
Status,1719424318000,41,13,3,1,1602562560,27.00,91.0,37.0,1,1,0,22.0
Status,1719424318000,41,14,3,13,1600875010,0.00,184.0,45.0,0,1,0,0.0
Status,1719424318000,41,15,3,19,1603687550,0.00,330.0,4.0,0,1,0,0.0
Status,1719424318000,41,16,3,3,1604812540,0.00,317.0,19.0,0,1,0,0.0
Status,1719424318000,41,17,5,12,1561097980,19.80,0.0,0.0,0,1,0,14.8
Status,1719424318000,41,18,5,10,1561097980,17.00,108.0,14.0,0,1,0,12.0
Status,1719424318000,41,19,5,2,1561097980,0.00,115.0,25.0,0,1,0,0.0
Status,1719424318000,41,20,5,3,1561097980,0.00,98.0,2.0,0,1,0,0.0
Status,1719424318000,41,21,5,5,1561097980,0.00,142.0,43.0,0,1,0,0.0
Status,1719424318000,41,22,5,6,1561097980,0.00,52.0,16.0,0,1,0,0.0
Status,1719424318000,41,23,5,7,1561097980,0.00,98.0,13.0,0,1,0,0.0
Status,1719424318000,41,24,5,9,1561097980,0.00,46.0,32.0,0,1,0,0.0
Status,1719424318000,41,25,5,16,1561097980,0.00,50.0,14.0,0,1,0,0.0
Status,1719424318000,41,26,5,19,1561097980,0.00,78.0,68.0,0,1,0,0.0
Status,1719424318000,41,27,5,20,1561097980,0.00,115.0,23.0,0,1,0,0.0
Status,1719424318000,41,28,5,22,1561097980,0.00,320.0,45.0,0,1,0,0.0
Status,1719424318000,41,29,5,36,1561097980,0.00,178.0,66.0,0,1,0,0.0
Status,1719424318000,41,30,5,37,1561097980,0.00,0.0,0.0,0,1,0,0.0
Status,1719424318000,41,31,4,194,1575420030,22.70,0.0,0.0,0,1,0,17.7
Status,1719424318000,41,32,6,4,1575420030,0.00,302.0,39.0,0,1,0,0.0
Status,1719424318000,41,33,6,10,1575420030,0.00,260.0,32.0,0,1,0,0.0
Status,1719424318000,41,34,6,11,1575420030,0.00,291.0,26.0,0,1,0,0.0
Status,1719424318000,41,35,6,12,1575420030,0.00,230.0,30.0,0,1,0,0.0
Status,1719424318000,41,36,6,19,1575420030,0.00,43.0,56.0,0,1,0,0.0
Status,1719424318000,41,37,6,21,1575420030,0.00,91.0,43.0,0,1,0,0.0
Status,1719424318000,41,38,6,27,1575420030,0.00,40.0,13.0,0,1,0,0.0
Status,1719424318000,41,39,6,33,1575420030,0.00,184.0,4.0,0,1,1,0.0
Status,1719424318000,41,40,6,36,1575420030,0.00,0.0,0.0,0,1,0,0.0
Raw,1719424318446,291401185000000,18,,-1403168135261562015,0.6884479522705078,31.80923158652149,-4.998232470019,10.51291977255795,68,3,0.0,16399,323536369919630,8,44.6,633.8499755859375,0.034700002521276474,16,0.0,1902.9177342976868,1575420030,,,,0,,1,1.25,41.2,0.0,0.0,,,C,300547741991803
Raw,1719424318446,291401185000000,18,,-1403168135261562015,0.6884479522705078,31.80923158652149,-4.998232470019,10.51291977255795,68,4,0.0,16399,323536374012377,8,44.5,286.4902038574219,0.0422000028192997,16,0.0,1902.9177342976868,1575420030,,,,0,,1,1.25,41.1,0.0,0.0,,,C,300547741991803
Raw,1719424318446,291401185000000,18,,-1403168135261562015,0.6884479522705078,31.80923158652149,-4.998232470019,10.51291977255795,68,6,0.0,16399,323536370437026,8,44.6,329.5344543457031,0.03620000183582306,16,0.0,1902.9177342976868,1575420030,,,,0,,1,1.25,41.2,0.0,0.0,,,C,300547741991803
Raw,1719424318446,291401185000000,18,,-1403168135261562015,0.6884479522705078,31.80923158652149,-4.998232470019,10.51291977255795,68,7,0.0,16399,323536376529312,8,44.6,-133.4384002685547,0.04520000144839287,16,0.0,1902.9177342976868,1575420030,,,,0,,1,1.25,41.2,0.0,0.0,,,C,300547741991803
Raw,1719424318446,291401185000000,18,,-1403168135261562015,0.6884479522705078,31.80923158652149,-4.998232470019,10.51291977255795,68,9,0.0,16399,323536377965008,8,44.7,-47.29301071166992,0.04670000448822975,16,0.0,1902.9177342976868,1575420030,,,,0,,1,1.25,41.300000000000004,0.0,0.0,,,C,300547741991803
Raw,1719424318446,291401185000000,18,,-1403168135261562015,0.6884479522705078,31.80923158652149,-4.998232470019,10.51291977255795,68,11,0.0,16399,323536367032411,8,44.4,-102.3548355102539,0.031700000166893005,16,0.0,1902.9177342976868,1575420030,,,,0,,1,1.25,41.0,0.0,0.0,,,C,300547741991803
Raw,1719424318446,291401185000000,18,,-1403168135261562015,0.6884479522705078,31.80923158652149,-4.998232470019,10.51291977255795,68,16,0.0,16399,323536369745451,8,44.6,291.2785949707031,0.034700002521276474,16,0.0,1902.9177342976868,1575420030,,,,0,,1,1.25,41.2,0.0,0.0,,,C,300547741991803
Raw,1719424318446,291401185000000,18,,-1403168135261562015,0.6884479522705078,31.80923158652149,-4.998232470019,10.51291977255795,68,20,0.0,16399,323536363817626,9,44.2,-659.0377807617188,0.02630000188946724,16,0.0,1902.9177342976868,1575420030,,,,0,,1,1.25,40.800000000000004,0.0,0.0,,,C,300547741991803
Raw,1719424318446,291401185000000,18,,-1403168135261562015,0.6884479522705078,31.80923158652149,-4.998232470019,10.51291977255795,68,30,0.0,16399,323536370856613,8,44.5,-464.4178466796875,0.03620000183582306,16,0.0,1902.9177342976868,1575420030,,,,0,,1,1.25,41.1,0.0,0.0,,,C,300547741991803
Raw,1719424318446,291401185000000,18,,-1403168135261562015,0.6884479522705078,31.80923158652149,-4.998232470019,10.51291977255795,68,18,0.0,49359,75118369524404,16,38.3,256.0935363769531,0.04439999908208847,16,0.0,1873.3183770502228,1600312450,,,,0,,3,0.69,34.3,-797011.75,52.06963348388672,,,C,300547741991803
Raw,1719424318446,291401185000000,18,,-1403168135261562015,0.6884479522705078,31.80923158652149,-4.998232470019,10.51291977255795,68,12,0.0,49359,75118382614248,46,29.9,75.30204010009766,0.8495000004768372,16,0.0,0.0,1601437440,,,,0,,3,0.69,25.9,-797011.75,52.06963348388672,,,C,300547741991803
Raw,1719424318446,291401185000000,18,,-1403168135261562015,0.6884479522705078,31.80923158652149,-4.998232470019,10.51291977255795,68,11,0.0,49359,75118370865455,13,40.6,728.623291015625,0.039900001138448715,16,0.0,1871.3450173911542,1602000000,,,,0,,3,0.69,36.6,-797011.75,52.06963348388672,,,C,300547741991803
Raw,1719424318446,291401185000000,18,,-1403168135261562015,0.6884479522705078,31.80923158652149,-4.998232470019,10.51291977255795,68,1,0.0,49359,75118376997219,35,31.0,290.7826843261719,0.750499963760376,16,0.0,0.0,1602562560,,,,0,,3,0.69,27.0,-797011.75,52.06963348388672,,,C,300547741991803
Raw,1719424318446,291401185000000,18,,-1403168135261562015,0.6884479522705078,31.80923158652149,-4.998232470019,10.51291977255795,68,10,0.0,16399,323522311915567,139,21.3,-295.9712829589844,11.317999839782715,16,0.0,0.0,1561097980,,,,0,,5,1.45,17.0,0.0,20000.0,,,I,300547741991803
Fix,GPS,33.8182680000,35.4908101900,192.49615478515625,0.0,3.7900925,,1719424319000,0.086023256,,300561879751907,2.5,0,,,
Fix,FLP,33.8182680000,35.4908102000,192.49615478515625,0.025022823,3.9,,1719424318876,0.086023256,,300561879751907,2.5,0,,,
Status,1719424319000,41,0,1,3,1575420030,41.60,144.0,27.0,1,1,1,36.6
Status,1719424319000,41,1,1,4,1575420030,41.20,66.0,41.0,1,1,1,36.2
Status,1719424319000,41,2,1,6,1575420030,41.60,254.0,29.0,1,1,1,36.6
Status,1719424319000,41,3,1,7,1575420030,41.20,253.0,68.0,1,1,1,36.2
Status,1719424319000,41,4,1,9,1575420030,41.60,5.0,63.0,1,1,1,36.6
Status,1719424319000,41,5,1,11,1575420030,41.30,296.0,20.0,1,1,1,36.3
Status,1719424319000,41,6,1,16,1575420030,41.40,54.0,23.0,1,1,1,36.4
Status,1719424319000,41,7,1,20,1575420030,40.90,319.0,8.0,1,1,1,35.9
Status,1719424319000,41,8,1,30,1575420030,41.30,237.0,33.0,1,1,1,36.3
Status,1719424319000,41,9,3,2,1599750020,12.60,11.0,56.0,0,1,0,7.6
Status,1719424319000,41,10,3,18,1600312450,34.60,291.0,12.0,0,1,1,29.6
Status,1719424319000,41,11,3,12,1601437440,28.50,82.0,70.0,1,1,0,23.5
Status,1719424319000,41,12,3,11,1602000000,36.80,29.0,18.0,0,1,1,31.8
Status,1719424319000,41,13,3,1,1602562560,27.30,91.0,37.0,1,1,0,22.3
Status,1719424319000,41,14,3,13,1600875010,0.00,184.0,45.0,0,1,0,0.0
Status,1719424319000,41,15,3,19,1603687550,0.00,330.0,4.0,0,1,0,0.0
Status,1719424319000,41,16,3,3,1604812540,0.00,317.0,19.0,0,1,0,0.0
Status,1719424319000,41,17,5,12,1561097980,19.80,0.0,0.0,0,1,0,14.8
Status,1719424319000,41,18,5,10,1561097980,17.00,108.0,14.0,0,1,0,12.0
Status,1719424319000,41,19,5,2,1561097980,0.00,115.0,25.0,0,1,0,0.0
Status,1719424319000,41,20,5,3,1561097980,0.00,98.0,2.0,0,1,0,0.0
Status,1719424319000,41,21,5,5,1561097980,0.00,142.0,43.0,0,1,0,0.0
Status,1719424319000,41,22,5,6,1561097980,0.00,52.0,16.0,0,1,0,0.0
Status,1719424319000,41,23,5,7,1561097980,0.00,98.0,13.0,0,1,0,0.0
Status,1719424319000,41,24,5,9,1561097980,0.00,46.0,32.0,0,1,0,0.0
Status,1719424319000,41,25,5,16,1561097980,0.00,50.0,14.0,0,1,0,0.0
Status,1719424319000,41,26,5,19,1561097980,0.00,78.0,68.0,0,1,0,0.0
Status,1719424319000,41,27,5,20,1561097980,0.00,115.0,23.0,0,1,0,0.0
Status,1719424319000,41,28,5,22,1561097980,0.00,320.0,45.0,0,1,0,0.0
Status,1719424319000,41,29,5,36,1561097980,0.00,178.0,66.0,0,1,0,0.0
Status,1719424319000,41,30,5,37,1561097980,0.00,0.0,0.0,0,1,0,0.0
Status,1719424319000,41,31,4,194,1575420030,22.70,0.0,0.0,0,1,0,17.7
Status,1719424319000,41,32,6,4,1575420030,0.00,302.0,39.0,0,1,0,0.0
Status,1719424319000,41,33,6,10,1575420030,0.00,260.0,32.0,0,1,0,0.0
Status,1719424319000,41,34,6,11,1575420030,0.00,291.0,26.0,0,1,0,0.0
Status,1719424319000,41,35,6,12,1575420030,0.00,230.0,30.0,0,1,0,0.0
Status,1719424319000,41,36,6,19,1575420030,0.00,43.0,56.0,0,1,0,0.0
Status,1719424319000,41,37,6,21,1575420030,0.00,91.0,43.0,0,1,0,0.0
Status,1719424319000,41,38,6,27,1575420030,0.00,40.0,13.0,0,1,0,0.0
Status,1719424319000,41,39,6,33,1575420030,0.00,184.0,4.0,0,1,1,0.0
Status,1719424319000,41,40,6,36,1575420030,0.00,0.0,0.0,0,1,0,0.0
Raw,1719424319446,291402185000000,18,,-1403168135261562019,0.27770423889160156,31.647046853322536,-4.390839100002203,10.51289909530977,68,3,0.0,16399,323537369917522,8,45.0,633.5857543945312,0.034700002521276474,16,0.0,1902.9177342976868,1575420030,,,,0,,1,1.44,41.6,0.0,0.0,,,C,300548736879094
Raw,1719424319446,291402185000000,18,,-1403168135261562019,0.27770423889160156,31.647046853322536,-4.390839100002203,10.51289909530977,68,4,0.0,16399,323537374011425,8,44.6,286.2027587890625,0.0422000028192997,16,0.0,1902.9177342976868,1575420030,,,,0,,1,1.44,41.2,0.0,0.0,,,C,300548736879094
Raw,1719424319446,291402185000000,18,,-1403168135261562019,0.27770423889160156,31.647046853322536,-4.390839100002203,10.51289909530977,68,6,0.0,16399,323537370435934,8,45.0,329.3023986816406,0.03620000183582306,16,0.0,1902.9177342976868,1575420030,,,,0,,1,1.44,41.6,0.0,0.0,,,C,300548736879094
Raw,1719424319446,291402185000000,18,,-1403168135261562019,0.27770423889160156,31.647046853322536,-4.390839100002203,10.51289909530977,68,7,0.0,16399,323537376529759,8,44.6,-133.68727111816406,0.04520000144839287,16,0.0,1902.9177342976868,1575420030,,,,0,,1,1.44,41.2,0.0,0.0,,,C,300548736879094
Raw,1719424319446,291402185000000,18,,-1403168135261562019,0.27770423889160156,31.647046853322536,-4.390839100002203,10.51289909530977,68,9,0.0,16399,323537377965168,8,45.0,-47.57768630981445,0.04670000448822975,16,0.0,1902.9177342976868,1575420030,,,,0,,1,1.44,41.6,0.0,0.0,,,C,300548736879094
Raw,1719424319446,291402185000000,18,,-1403168135261562019,0.27770423889160156,31.647046853322536,-4.390839100002203,10.51289909530977,68,11,0.0,16399,323537367032744,8,44.7,-102.55268096923828,0.031700000166893005,16,0.0,1902.9177342976868,1575420030,,,,0,,1,1.44,41.300000000000004,0.0,0.0,,,C,300548736879094
Raw,1719424319446,291402185000000,18,,-1403168135261562019,0.27770423889160156,31.647046853322536,-4.390839100002203,10.51289909530977,68,16,0.0,16399,323537369744488,8,44.8,291.08331298828125,0.034700002521276474,16,0.0,1902.9177342976868,1575420030,,,,0,,1,1.44,41.4,0.0,0.0,,,C,300548736879094
Raw,1719424319446,291402185000000,18,,-1403168135261562019,0.27770423889160156,31.647046853322536,-4.390839100002203,10.51289909530977,68,20,0.0,16399,323537363819822,9,44.3,-659.32275390625,0.02630000188946724,16,0.0,1902.9177342976868,1575420030,,,,0,,1,1.44,40.9,0.0,0.0,,,C,300548736879094
Raw,1719424319446,291402185000000,18,,-1403168135261562019,0.27770423889160156,31.647046853322536,-4.390839100002203,10.51289909530977,68,30,0.0,16399,323537370858160,8,44.7,-464.6736755371094,0.03620000183582306,16,0.0,1902.9177342976868,1575420030,,,,0,,1,1.44,41.300000000000004,0.0,0.0,,,C,300548736879094
Raw,1719424319446,291402185000000,18,,-1403168135261562019,0.27770423889160156,31.647046853322536,-4.390839100002203,10.51289909530977,68,18,0.0,49359,75119369523588,16,38.6,255.89178466796875,0.04439999908208847,16,0.0,1873.3183770502228,1600312450,,,,0,,3,0.94,34.6,-797011.6875,52.076377868652344,,,C,300548736879094
Raw,1719424319446,291402185000000,18,,-1403168135261562019,0.27770423889160156,31.647046853322536,-4.390839100002203,10.51289909530977,68,12,0.0,49359,75119382613900,31,32.5,74.54387664794922,0.6694999933242798,16,0.0,0.0,1601437440,,,,0,,3,0.94,28.5,-797011.6875,52.076377868652344,,,C,300548736879094
Raw,1719424319446,291402185000000,18,,-1403168135261562019,0.27770423889160156,31.647046853322536,-4.390839100002203,10.51289909530977,68,11,0.0,49359,75119370863042,13,40.8,728.3632202148438,0.039900001138448715,16,0.0,1871.3450173911542,1602000000,,,,0,,3,0.94,36.8,-797011.6875,52.076377868652344,,,C,300548736879094
Raw,1719424319446,291402185000000,18,,-1403168135261562019,0.27770423889160156,31.647046853322536,-4.390839100002203,10.51289909530977,68,1,0.0,49359,75119376996377,35,31.3,290.9697570800781,0.750499963760376,16,0.0,0.0,1602562560,,,,0,,3,0.94,27.3,-797011.6875,52.076377868652344,,,C,300548736879094
Fix,GPS,33.8182681300,35.4908101100,192.46685791015625,0.0,3.7900925,,1719424320000,0.086023256,,300562863796958,2.5250404,0,,,
Fix,FLP,33.8182681000,35.4908101000,192.46685791015625,0.01890364,3.9,,1719424319860,0.086023256,,300562863796958,2.5250404,0,,,
Status,1719424320000,42,0,1,3,1575420030,0.00,142.0,28.0,1,1,1,0.0
Status,1719424320000,42,1,1,4,1575420030,0.00,64.0,39.0,1,1,1,0.0
Status,1719424320000,42,2,1,6,1575420030,0.00,255.0,30.0,1,1,1,0.0
Status,1719424320000,42,3,1,7,1575420030,0.00,261.0,69.0,1,1,1,0.0
Status,1719424320000,42,4,1,9,1575420030,0.00,5.0,59.0,1,1,1,0.0
Status,1719424320000,42,5,1,11,1575420030,0.00,298.0,19.0,1,1,1,0.0
Status,1719424320000,42,6,1,14,1575420030,0.00,192.0,1.0,0,1,0,0.0
Status,1719424320000,42,7,1,16,1575420030,0.00,53.0,21.0,1,1,1,0.0
Status,1719424320000,42,8,1,20,1575420030,0.00,320.0,7.0,1,1,1,0.0
Status,1719424320000,42,9,1,30,1575420030,0.00,239.0,35.0,1,1,1,0.0
Status,1719424320000,42,10,3,2,1599750020,0.00,12.0,53.0,0,1,0,0.0
Status,1719424320000,42,11,3,13,1600875010,0.00,184.0,48.0,0,1,0,0.0
Status,1719424320000,42,12,3,12,1601437440,0.00,71.0,69.0,1,1,0,0.0
Status,1719424320000,42,13,3,1,1602562560,0.00,90.0,37.0,1,1,0,0.0
Status,1719424320000,42,14,3,19,1603687550,0.00,330.0,2.0,0,1,0,0.0
Status,1719424320000,42,15,3,3,1604812540,0.00,319.0,18.0,0,1,0,0.0
Status,1719424320000,42,16,5,2,1561097980,0.00,113.0,26.0,0,1,0,0.0
Status,1719424320000,42,17,5,3,1561097980,0.00,98.0,2.0,0,1,0,0.0
Status,1719424320000,42,18,5,5,1561097980,0.00,139.0,45.0,0,1,0,0.0
Status,1719424320000,42,19,5,6,1561097980,0.00,50.0,14.0,0,1,0,0.0
Status,1719424320000,42,20,5,7,1561097980,0.00,97.0,13.0,0,1,0,0.0
Status,1719424320000,42,21,5,9,1561097980,0.00,45.0,30.0,0,1,0,0.0
Status,1719424320000,42,22,5,10,1561097980,0.00,106.0,15.0,0,1,0,0.0
Status,1719424320000,42,23,5,12,1561097980,0.00,0.0,0.0,0,1,0,0.0
Status,1719424320000,42,24,5,16,1561097980,0.00,50.0,12.0,0,1,0,0.0
Status,1719424320000,42,25,5,19,1561097980,0.00,73.0,66.0,0,1,0,0.0
Status,1719424320000,42,26,5,20,1561097980,0.00,113.0,23.0,0,1,0,0.0
Status,1719424320000,42,27,5,22,1561097980,0.00,323.0,43.0,0,1,0,0.0
Status,1719424320000,42,28,5,35,1561097980,0.00,0.0,0.0,0,1,0,0.0
Status,1719424320000,42,29,5,36,1561097980,0.00,177.0,70.0,0,1,0,0.0
Status,1719424320000,42,30,5,37,1561097980,0.00,0.0,0.0,0,1,0,0.0
Status,1719424320000,42,31,6,4,1575420030,0.00,305.0,38.0,0,1,0,0.0
Status,1719424320000,42,32,6,9,1575420030,0.00,0.0,0.0,0,1,0,0.0
Status,1719424320000,42,33,6,10,1575420030,0.00,261.0,33.0,0,1,0,0.0
Status,1719424320000,42,34,6,11,1575420030,0.00,292.0,25.0,0,1,0,0.0
Status,1719424320000,42,35,6,12,1575420030,0.00,232.0,31.0,0,1,0,0.0
Status,1719424320000,42,36,6,19,1575420030,0.00,40.0,54.0,0,1,0,0.0
Status,1719424320000,42,37,6,21,1575420030,0.00,87.0,42.0,0,1,0,0.0
Status,1719424320000,42,38,6,27,1575420030,0.00,39.0,11.0,0,1,0,0.0
Status,1719424320000,42,39,6,31,1575420030,0.00,0.0,0.0,0,1,0,0.0
Status,1719424320000,42,40,6,33,1575420030,0.00,182.0,6.0,0,1,1,0.0
Status,1719424320000,42,41,6,36,1575420030,0.00,0.0,0.0,0,1,0,0.0
Fix,NLP,32.0751913000,35.2689221000,,,800.0,,1719424319980,,,300562983000000,,0,,,
Status,,42,0,1,3,1575420030,39.70,142.0,28.0,0,1,1,34.7
Status,,42,1,1,4,1575420030,40.40,64.0,39.0,0,1,1,35.4
Status,,42,2,1,6,1575420030,40.10,255.0,30.0,0,1,1,35.1
Status,,42,3,1,7,1575420030,39.30,261.0,69.0,0,1,1,34.3
Status,,42,4,1,9,1575420030,39.50,5.0,59.0,0,1,1,34.5
Status,,42,5,1,11,1575420030,39.20,298.0,19.0,0,1,1,34.2
Status,,42,6,1,14,1575420030,39.90,192.0,1.0,0,1,0,34.9
Status,,42,7,1,16,1575420030,40.60,53.0,21.0,0,1,1,35.6
Status,,42,8,1,20,1575420030,39.10,320.0,7.0,0,1,1,34.1
Status,,42,9,1,30,1575420030,39.70,239.0,35.0,0,1,1,34.7
Status,,42,10,3,2,1599750020,0.00,12.0,53.0,0,1,0,0.0
Status,,42,11,3,13,1600875010,0.00,184.0,48.0,0,1,0,0.0
Status,,42,12,3,12,1601437440,0.00,71.0,69.0,0,1,0,0.0
Status,,42,13,3,1,1602562560,0.00,90.0,37.0,0,1,0,0.0
Status,,42,14,3,19,1603687550,0.00,330.0,2.0,0,1,0,0.0
Status,,42,15,3,3,1604812540,0.00,319.0,18.0,0,1,0,0.0
Status,,42,16,5,2,1561097980,0.00,113.0,26.0,0,1,0,0.0
Status,,42,17,5,3,1561097980,0.00,98.0,2.0,0,1,0,0.0
Status,,42,18,5,5,1561097980,0.00,139.0,45.0,0,1,0,0.0
Status,,42,19,5,6,1561097980,0.00,50.0,14.0,0,1,0,0.0
Status,,42,20,5,7,1561097980,0.00,97.0,13.0,0,1,0,0.0
Status,,42,21,5,9,1561097980,0.00,45.0,30.0,0,1,0,0.0
Status,,42,22,5,10,1561097980,0.00,106.0,15.0,0,1,0,0.0
Status,,42,23,5,12,1561097980,0.00,0.0,0.0,0,1,0,0.0
Status,,42,24,5,16,1561097980,0.00,50.0,12.0,0,1,0,0.0
Status,,42,25,5,19,1561097980,0.00,73.0,66.0,0,1,0,0.0
Status,,42,26,5,20,1561097980,0.00,113.0,23.0,0,1,0,0.0
Status,,42,27,5,22,1561097980,0.00,323.0,43.0,0,1,0,0.0
Status,,42,28,5,35,1561097980,0.00,0.0,0.0,0,1,0,0.0
Status,,42,29,5,36,1561097980,0.00,177.0,70.0,0,1,0,0.0
Status,,42,30,5,37,1561097980,0.00,0.0,0.0,0,1,0,0.0
Status,,42,31,6,4,1575420030,0.00,305.0,38.0,0,1,0,0.0
Status,,42,32,6,9,1575420030,0.00,0.0,0.0,0,1,0,0.0
Status,,42,33,6,10,1575420030,0.00,261.0,33.0,0,1,0,0.0
Status,,42,34,6,11,1575420030,0.00,292.0,25.0,0,1,0,0.0
Status,,42,35,6,12,1575420030,0.00,232.0,31.0,0,1,0,0.0
Status,,42,36,6,19,1575420030,0.00,40.0,54.0,0,1,0,0.0
Status,,42,37,6,21,1575420030,0.00,87.0,42.0,0,1,0,0.0
Status,,42,38,6,27,1575420030,0.00,39.0,11.0,0,1,0,0.0
Status,,42,39,6,31,1575420030,0.00,0.0,0.0,0,1,0,0.0
Status,,42,40,6,33,1575420030,0.00,182.0,6.0,0,1,1,0.0
Status,,42,41,6,36,1575420030,0.00,0.0,0.0,0,1,0,0.0
Status,,38,0,1,3,1575420030,38.30,143.0,28.0,0,1,1,33.3
Status,,38,1,1,4,1575420030,36.20,64.0,40.0,0,1,1,31.2
Status,,38,2,1,6,1575420030,36.40,254.0,30.0,0,1,1,31.4
Status,,38,3,1,7,1575420030,38.30,258.0,68.0,0,1,1,33.3
Status,,38,4,1,9,1575420030,36.10,5.0,61.0,0,1,1,31.1
Status,,38,5,1,11,1575420030,38.10,298.0,19.0,0,1,1,33.1
Status,,38,6,1,14,1575420030,38.40,0.0,0.0,0,1,0,33.4
Status,,38,7,1,16,1575420030,36.50,53.0,22.0,0,1,1,31.5
Status,,38,8,1,20,1575420030,36.70,320.0,7.0,0,1,1,31.7
Status,,38,9,1,30,1575420030,36.60,239.0,35.0,0,1,1,31.6
Status,,38,10,3,2,1599750020,0.00,12.0,54.0,0,1,0,0.0
Status,,38,11,3,13,1600875010,0.00,184.0,47.0,0,1,0,0.0
Status,,38,12,3,12,1601437440,0.00,74.0,69.0,0,1,0,0.0
Status,,38,13,3,1,1602562560,0.00,90.0,37.0,0,1,0,0.0
Status,,38,14,3,19,1603687550,0.00,330.0,3.0,0,1,0,0.0
Status,,38,15,3,3,1604812540,0.00,319.0,18.0,0,1,0,0.0
Status,,38,16,5,2,1561097980,0.00,113.0,25.0,0,1,0,0.0
Status,,38,17,5,3,1561097980,0.00,98.0,2.0,0,1,0,0.0
Status,,38,18,5,5,1561097980,0.00,139.0,45.0,0,1,0,0.0
Status,,38,19,5,6,1561097980,0.00,50.0,14.0,0,1,0,0.0
Status,,38,20,5,7,1561097980,0.00,97.0,14.0,0,1,0,0.0
Status,,38,21,5,9,1561097980,0.00,45.0,30.0,0,1,0,0.0
Status,,38,22,5,10,1561097980,0.00,108.0,15.0,0,1,0,0.0
Status,,38,23,5,12,1561097980,0.00,0.0,0.0,0,1,0,0.0
Status,,38,24,5,16,1561097980,0.00,50.0,12.0,0,1,0,0.0
Status,,38,25,5,19,1561097980,0.00,74.0,67.0,0,1,0,0.0
Status,,38,26,5,20,1561097980,0.00,113.0,23.0,0,1,0,0.0
Status,,38,27,5,22,1561097980,0.00,322.0,43.0,0,1,0,0.0
Status,,38,28,5,35,1561097980,0.00,0.0,0.0,0,1,0,0.0
Status,,38,29,5,36,1561097980,0.00,178.0,69.0,0,1,0,0.0
Status,,38,30,6,4,1575420030,0.00,305.0,38.0,0,1,0,0.0
Status,,38,31,6,10,1575420030,0.00,260.0,33.0,0,1,0,0.0
Status,,38,32,6,11,1575420030,0.00,291.0,25.0,0,1,0,0.0
Status,,38,33,6,12,1575420030,0.00,232.0,30.0,0,1,0,0.0
Status,,38,34,6,19,1575420030,0.00,42.0,54.0,0,1,0,0.0
Status,,38,35,6,21,1575420030,0.00,87.0,43.0,0,1,0,0.0
Status,,38,36,6,27,1575420030,0.00,39.0,11.0,0,1,0,0.0
Status,,38,37,6,33,1575420030,0.00,182.0,5.0,0,1,1,0.0
Status,,38,0,1,3,1575420030,40.10,143.0,28.0,0,1,1,35.1
Status,,38,1,1,4,1575420030,41.00,64.0,40.0,0,1,1,36.0
Status,,38,2,1,6,1575420030,40.30,254.0,30.0,0,1,1,35.3
Status,,38,3,1,7,1575420030,40.90,258.0,68.0,0,1,1,35.9
Status,,38,4,1,9,1575420030,41.10,5.0,61.0,0,1,1,36.1
Status,,38,5,1,11,1575420030,40.50,298.0,19.0,0,1,1,35.5
Status,,38,6,1,14,1575420030,40.20,0.0,0.0,0,1,0,35.2
Status,,38,7,1,16,1575420030,40.60,53.0,22.0,0,1,1,35.6
Status,,38,8,1,20,1575420030,40.90,320.0,7.0,0,1,1,35.9
Status,,38,9,1,30,1575420030,40.30,239.0,35.0,0,1,1,35.3
Status,,38,10,3,2,1599750020,0.00,12.0,54.0,0,1,0,0.0
Status,,38,11,3,13,1600875010,0.00,184.0,47.0,0,1,0,0.0
Status,,38,12,3,12,1601437440,0.00,74.0,69.0,0,1,0,0.0
Status,,38,13,3,1,1602562560,0.00,90.0,37.0,0,1,0,0.0
Status,,38,14,3,19,1603687550,0.00,330.0,3.0,0,1,0,0.0
Status,,38,15,3,3,1604812540,0.00,319.0,18.0,0,1,0,0.0
Status,,38,16,5,2,1561097980,0.00,113.0,25.0,0,1,0,0.0
Status,,38,17,5,3,1561097980,0.00,98.0,2.0,0,1,0,0.0
Status,,38,18,5,5,1561097980,0.00,139.0,45.0,0,1,0,0.0
Status,,38,19,5,6,1561097980,0.00,50.0,14.0,0,1,0,0.0
Status,,38,20,5,7,1561097980,0.00,97.0,14.0,0,1,0,0.0
Status,,38,21,5,9,1561097980,0.00,45.0,30.0,0,1,0,0.0
Status,,38,22,5,10,1561097980,0.00,108.0,15.0,0,1,0,0.0
Status,,38,23,5,12,1561097980,0.00,0.0,0.0,0,1,0,0.0
Status,,38,24,5,16,1561097980,0.00,50.0,12.0,0,1,0,0.0
Status,,38,25,5,19,1561097980,0.00,74.0,67.0,0,1,0,0.0
Status,,38,26,5,20,1561097980,0.00,113.0,23.0,0,1,0,0.0
Status,,38,27,5,22,1561097980,0.00,322.0,43.0,0,1,0,0.0
Status,,38,28,5,35,1561097980,0.00,0.0,0.0,0,1,0,0.0
Status,,38,29,5,36,1561097980,0.00,178.0,69.0,0,1,0,0.0
Status,,38,30,6,4,1575420030,0.00,305.0,38.0,0,1,0,0.0
Status,,38,31,6,10,1575420030,0.00,260.0,33.0,0,1,0,0.0
Status,,38,32,6,11,1575420030,0.00,291.0,25.0,0,1,0,0.0
Status,,38,33,6,12,1575420030,0.00,232.0,30.0,0,1,0,0.0
Status,,38,34,6,19,1575420030,0.00,42.0,54.0,0,1,0,0.0
Status,,38,35,6,21,1575420030,0.00,87.0,43.0,0,1,0,0.0
Status,,38,36,6,27,1575420030,0.00,39.0,11.0,0,1,0,0.0
Status,,38,37,6,33,1575420030,0.00,182.0,5.0,0,1,1,0.0
Status,,38,0,1,3,1575420030,26.00,143.0,28.0,0,1,1,21.0
Status,,38,1,1,4,1575420030,26.10,64.0,40.0,0,1,1,21.1
Status,,38,2,1,6,1575420030,25.40,254.0,30.0,0,1,1,20.4
Status,,38,3,1,7,1575420030,26.70,258.0,68.0,0,1,1,21.7
Status,,38,4,1,9,1575420030,26.10,5.0,61.0,0,1,1,21.1
Status,,38,5,1,11,1575420030,26.80,298.0,19.0,0,1,1,21.8
Status,,38,6,1,14,1575420030,26.30,0.0,0.0,0,1,0,21.3
Status,,38,7,1,16,1575420030,27.60,53.0,22.0,0,1,1,22.6
Status,,38,8,1,20,1575420030,26.70,320.0,7.0,0,1,1,21.7
Status,,38,9,1,30,1575420030,26.40,239.0,35.0,0,1,1,21.4
Status,,38,10,3,2,1599750020,0.00,12.0,54.0,0,1,0,0.0
Status,,38,11,3,13,1600875010,0.00,184.0,47.0,0,1,0,0.0
Status,,38,12,3,12,1601437440,0.00,74.0,69.0,0,1,0,0.0
Status,,38,13,3,1,1602562560,0.00,90.0,37.0,0,1,0,0.0
Status,,38,14,3,19,1603687550,0.00,330.0,3.0,0,1,0,0.0
Status,,38,15,3,3,1604812540,0.00,319.0,18.0,0,1,0,0.0
Status,,38,16,5,2,1561097980,0.00,113.0,25.0,0,1,0,0.0
Status,,38,17,5,3,1561097980,0.00,98.0,2.0,0,1,0,0.0
Status,,38,18,5,5,1561097980,0.00,139.0,45.0,0,1,0,0.0
Status,,38,19,5,6,1561097980,0.00,50.0,14.0,0,1,0,0.0
Status,,38,20,5,7,1561097980,0.00,97.0,14.0,0,1,0,0.0
Status,,38,21,5,9,1561097980,0.00,45.0,30.0,0,1,0,0.0
Status,,38,22,5,10,1561097980,0.00,108.0,15.0,0,1,0,0.0
Status,,38,23,5,12,1561097980,0.00,0.0,0.0,0,1,0,0.0
Status,,38,24,5,16,1561097980,0.00,50.0,12.0,0,1,0,0.0
Status,,38,25,5,19,1561097980,0.00,74.0,67.0,0,1,0,0.0
Status,,38,26,5,20,1561097980,0.00,113.0,23.0,0,1,0,0.0
Status,,38,27,5,22,1561097980,0.00,322.0,43.0,0,1,0,0.0
Status,,38,28,5,35,1561097980,0.00,0.0,0.0,0,1,0,0.0
Status,,38,29,5,36,1561097980,0.00,178.0,69.0,0,1,0,0.0
Status,,38,30,6,4,1575420030,0.00,305.0,38.0,0,1,0,0.0
Status,,38,31,6,10,1575420030,0.00,260.0,33.0,0,1,0,0.0
Status,,38,32,6,11,1575420030,0.00,291.0,25.0,0,1,0,0.0
Status,,38,33,6,12,1575420030,0.00,232.0,30.0,0,1,0,0.0
Status,,38,34,6,19,1575420030,0.00,42.0,54.0,0,1,0,0.0
Status,,38,35,6,21,1575420030,0.00,87.0,43.0,0,1,0,0.0
Status,,38,36,6,27,1575420030,0.00,39.0,11.0,0,1,0,0.0
Status,,38,37,6,33,1575420030,0.00,182.0,5.0,0,1,1,0.0
Status,,39,0,1,3,1575420030,24.80,143.0,28.0,0,1,1,19.8
Status,,39,1,1,4,1575420030,25.40,64.0,40.0,0,1,1,20.4
Status,,39,2,1,6,1575420030,24.60,254.0,30.0,0,1,1,19.6
Status,,39,3,1,7,1575420030,26.50,258.0,68.0,0,1,1,21.5
Status,,39,4,1,9,1575420030,26.60,5.0,61.0,0,1,1,21.6
Status,,39,5,1,11,1575420030,26.90,298.0,19.0,0,1,1,21.9
Status,,39,6,1,14,1575420030,25.00,0.0,0.0,0,1,0,20.0
Status,,39,7,1,16,1575420030,26.20,53.0,22.0,0,1,1,21.2
Status,,39,8,1,20,1575420030,26.40,320.0,7.0,0,1,1,21.4
Status,,39,9,1,30,1575420030,26.10,239.0,35.0,0,1,1,21.1
Status,,39,10,3,2,1599750020,0.00,12.0,54.0,0,1,0,0.0
Status,,39,11,3,13,1600875010,0.00,184.0,47.0,0,1,0,0.0
Status,,39,12,3,12,1601437440,0.00,74.0,69.0,0,1,0,0.0
Status,,39,13,3,1,1602562560,0.00,90.0,37.0,0,1,0,0.0
Status,,39,14,3,19,1603687550,0.00,330.0,3.0,0,1,0,0.0
Status,,39,15,3,3,1604812540,0.00,319.0,18.0,0,1,0,0.0
Status,,39,16,5,5,1561097980,28.20,139.0,45.0,0,1,0,23.2
Status,,39,17,5,2,1561097980,0.00,113.0,25.0,0,1,0,0.0
Status,,39,18,5,3,1561097980,0.00,98.0,2.0,0,1,0,0.0
Status,,39,19,5,6,1561097980,0.00,50.0,14.0,0,1,0,0.0
Status,,39,20,5,7,1561097980,0.00,97.0,14.0,0,1,0,0.0
Status,,39,21,5,9,1561097980,0.00,45.0,30.0,0,1,0,0.0
Status,,39,22,5,10,1561097980,0.00,108.0,15.0,0,1,0,0.0
Status,,39,23,5,12,1561097980,0.00,0.0,0.0,0,1,0,0.0
Status,,39,24,5,16,1561097980,0.00,50.0,12.0,0,1,0,0.0
Status,,39,25,5,19,1561097980,0.00,74.0,67.0,0,1,0,0.0
Status,,39,26,5,20,1561097980,0.00,113.0,23.0,0,1,0,0.0
Status,,39,27,5,22,1561097980,0.00,322.0,43.0,0,1,0,0.0
Status,,39,28,5,35,1561097980,0.00,0.0,0.0,0,1,0,0.0
Status,,39,29,5,36,1561097980,0.00,178.0,69.0,0,1,0,0.0
Status,,39,30,4,194,1575420030,35.10,0.0,0.0,0,1,0,30.1
Status,,39,31,6,4,1575420030,0.00,305.0,38.0,0,1,0,0.0
Status,,39,32,6,10,1575420030,0.00,260.0,33.0,0,1,0,0.0
Status,,39,33,6,11,1575420030,0.00,291.0,25.0,0,1,0,0.0
Status,,39,34,6,12,1575420030,0.00,232.0,30.0,0,1,0,0.0
Status,,39,35,6,19,1575420030,0.00,42.0,54.0,0,1,0,0.0
Status,,39,36,6,21,1575420030,0.00,87.0,43.0,0,1,0,0.0
Status,,39,37,6,27,1575420030,0.00,39.0,11.0,0,1,0,0.0
Status,,39,38,6,33,1575420030,0.00,182.0,5.0,0,1,1,0.0
Fix,NLP,32.0761958000,35.2661777000,697.5000610351562,,92.9,,1719424325900,,,300568902000000,16.594904,0,,,
Fix,FLP,33.8182681000,35.4908101000,192.46685791015625,0.0018016766,12.957,,1719424325899,1.5,,300568902000000,2.5854225,0,,,
Status,,39,0,1,3,1575420030,26.90,143.0,28.0,0,1,1,21.9
Status,,39,1,1,4,1575420030,26.80,64.0,40.0,0,1,1,21.8
Status,,39,2,1,6,1575420030,26.70,254.0,30.0,0,1,1,21.7
Status,,39,3,1,7,1575420030,26.80,258.0,68.0,0,1,1,21.8
Status,,39,4,1,9,1575420030,27.10,5.0,61.0,0,1,1,22.1
Status,,39,5,1,11,1575420030,27.60,298.0,19.0,0,1,1,22.6
Status,,39,6,1,14,1575420030,26.70,0.0,0.0,0,1,0,21.7
Status,,39,7,1,16,1575420030,28.40,53.0,22.0,0,1,1,23.4
Status,,39,8,1,20,1575420030,26.60,320.0,7.0,0,1,1,21.6
Status,,39,9,1,30,1575420030,26.90,239.0,35.0,0,1,1,21.9
Status,,39,10,3,2,1599750020,0.00,12.0,54.0,0,1,0,0.0
Status,,39,11,3,13,1600875010,0.00,184.0,47.0,0,1,0,0.0
Status,,39,12,3,12,1601437440,0.00,74.0,69.0,0,1,0,0.0
Status,,39,13,3,1,1602562560,0.00,90.0,37.0,0,1,0,0.0
Status,,39,14,3,19,1603687550,0.00,330.0,3.0,0,1,0,0.0
Status,,39,15,3,3,1604812540,0.00,319.0,18.0,0,1,0,0.0
Status,,39,16,5,5,1561097980,28.20,139.0,45.0,0,1,0,23.2
Status,,39,17,5,2,1561097980,0.00,113.0,25.0,0,1,0,0.0
Status,,39,18,5,3,1561097980,0.00,98.0,2.0,0,1,0,0.0
Status,,39,19,5,6,1561097980,0.00,50.0,14.0,0,1,0,0.0
Status,,39,20,5,7,1561097980,0.00,97.0,14.0,0,1,0,0.0
Status,,39,21,5,9,1561097980,0.00,45.0,30.0,0,1,0,0.0
Status,,39,22,5,10,1561097980,0.00,108.0,15.0,0,1,0,0.0
Status,,39,23,5,12,1561097980,0.00,0.0,0.0,0,1,0,0.0
Status,,39,24,5,16,1561097980,0.00,50.0,12.0,0,1,0,0.0
Status,,39,25,5,19,1561097980,0.00,74.0,67.0,0,1,0,0.0
Status,,39,26,5,20,1561097980,0.00,113.0,23.0,0,1,0,0.0
Status,,39,27,5,22,1561097980,0.00,322.0,43.0,0,1,0,0.0
Status,,39,28,5,35,1561097980,0.00,0.0,0.0,0,1,0,0.0
Status,,39,29,5,36,1561097980,0.00,178.0,69.0,0,1,0,0.0
Status,,39,30,4,194,1575420030,34.50,0.0,0.0,0,1,0,29.5
Status,,39,31,6,4,1575420030,0.00,305.0,38.0,0,1,0,0.0
Status,,39,32,6,10,1575420030,0.00,260.0,33.0,0,1,0,0.0
Status,,39,33,6,11,1575420030,0.00,291.0,25.0,0,1,0,0.0
Status,,39,34,6,12,1575420030,0.00,232.0,30.0,0,1,0,0.0
Status,,39,35,6,19,1575420030,0.00,42.0,54.0,0,1,0,0.0
Status,,39,36,6,21,1575420030,0.00,87.0,43.0,0,1,0,0.0
Status,,39,37,6,27,1575420030,0.00,39.0,11.0,0,1,0,0.0
Status,,39,38,6,33,1575420030,0.00,182.0,5.0,0,1,1,0.0
Status,,39,0,1,3,1575420030,29.20,143.0,28.0,0,1,1,24.2
Status,,39,1,1,4,1575420030,30.10,64.0,40.0,0,1,1,25.1
Status,,39,2,1,6,1575420030,28.80,254.0,30.0,0,1,1,23.8
Status,,39,3,1,7,1575420030,29.30,258.0,68.0,0,1,1,24.3
Status,,39,4,1,9,1575420030,29.90,5.0,61.0,0,1,1,24.9
Status,,39,5,1,11,1575420030,29.40,298.0,19.0,0,1,1,24.4
Status,,39,6,1,14,1575420030,29.40,0.0,0.0,0,1,0,24.4
Status,,39,7,1,16,1575420030,30.30,53.0,22.0,0,1,1,25.3
Status,,39,8,1,20,1575420030,30.50,320.0,7.0,0,1,1,25.5
Status,,39,9,1,30,1575420030,28.90,239.0,35.0,0,1,1,23.9
Status,,39,10,3,2,1599750020,0.00,12.0,54.0,0,1,0,0.0
Status,,39,11,3,13,1600875010,0.00,184.0,47.0,0,1,0,0.0
Status,,39,12,3,12,1601437440,0.00,74.0,69.0,0,1,0,0.0
Status,,39,13,3,1,1602562560,0.00,90.0,37.0,0,1,0,0.0
Status,,39,14,3,19,1603687550,0.00,330.0,3.0,0,1,0,0.0
Status,,39,15,3,3,1604812540,0.00,319.0,18.0,0,1,0,0.0
Status,,39,16,5,5,1561097980,28.20,139.0,45.0,0,1,0,23.2
Status,,39,17,5,2,1561097980,0.00,113.0,25.0,0,1,0,0.0
Status,,39,18,5,3,1561097980,0.00,98.0,2.0,0,1,0,0.0
Status,,39,19,5,6,1561097980,0.00,50.0,14.0,0,1,0,0.0
Status,,39,20,5,7,1561097980,0.00,97.0,14.0,0,1,0,0.0
Status,,39,21,5,9,1561097980,0.00,45.0,30.0,0,1,0,0.0
Status,,39,22,5,10,1561097980,0.00,108.0,15.0,0,1,0,0.0
Status,,39,23,5,12,1561097980,0.00,0.0,0.0,0,1,0,0.0
Status,,39,24,5,16,1561097980,0.00,50.0,12.0,0,1,0,0.0
Status,,39,25,5,19,1561097980,0.00,74.0,67.0,0,1,0,0.0
Status,,39,26,5,20,1561097980,0.00,113.0,23.0,0,1,0,0.0
Status,,39,27,5,22,1561097980,0.00,322.0,43.0,0,1,0,0.0
Status,,39,28,5,35,1561097980,0.00,0.0,0.0,0,1,0,0.0
Status,,39,29,5,36,1561097980,0.00,178.0,69.0,0,1,0,0.0
Status,,39,30,4,194,1575420030,34.50,0.0,0.0,0,1,0,29.5
Status,,39,31,6,4,1575420030,0.00,305.0,38.0,0,1,0,0.0
Status,,39,32,6,10,1575420030,0.00,260.0,33.0,0,1,0,0.0
Status,,39,33,6,11,1575420030,0.00,291.0,25.0,0,1,0,0.0
Status,,39,34,6,12,1575420030,0.00,232.0,30.0,0,1,0,0.0
Status,,39,35,6,19,1575420030,0.00,42.0,54.0,0,1,0,0.0
Status,,39,36,6,21,1575420030,0.00,87.0,43.0,0,1,0,0.0
Status,,39,37,6,27,1575420030,0.00,39.0,11.0,0,1,0,0.0
Status,,39,38,6,33,1575420030,0.00,182.0,5.0,0,1,1,0.0
Raw,1719424327612,291410345000000,18,,-1403168135267750909,0.26758575439453125,15000263.214111328,1.9531249475624988,266.3356301245171,69,3,0.0,16399,323545530900230,27,32.6,634.9434204101562,0.6814999580383301,16,0.0,0.0,1575420030,,,,0,,1,2.47,29.200000000000003,0.0,0.0,,,C,300556897982840
Raw,1719424327612,291410345000000,18,,-1403168135267750909,0.26758575439453125,15000263.214111328,1.9531249475624988,266.3356301245171,69,4,0.0,16399,323545534003704,24,33.5,287.0613708496094,0.11349999904632568,16,0.0,1902.9177342976868,1575420030,,,,0,,1,2.47,30.1,0.0,0.0,,,C,300556897982840
Raw,1719424327612,291410345000000,18,,-1403168135267750909,0.26758575439453125,15000263.214111328,1.9531249475624988,266.3356301245171,69,6,0.0,16399,323545531426943,31,32.2,330.54962158203125,0.6829999685287476,16,0.0,0.0,1575420030,,,,0,,1,2.47,28.800000000000004,0.0,0.0,,,C,300556897982840
Raw,1719424327612,291410345000000,18,,-1403168135267750909,0.26758575439453125,15000263.214111328,1.9531249475624988,266.3356301245171,69,7,0.0,16399,323545536533359,27,32.7,-132.4729461669922,0.6904999613761902,16,0.0,0.0,1575420030,,,,0,,1,2.47,29.300000000000004,0.0,0.0,,,C,300556897982840
Raw,1719424327612,291410345000000,18,,-1403168135267750909,0.26758575439453125,15000263.214111328,1.9531249475624988,266.3356301245171,69,9,0.0,16399,323545537966509,27,33.3,-46.89787292480469,0.6420000195503235,16,0.0,0.0,1575420030,,,,0,,1,2.47,29.9,0.0,0.0,,,C,300556897982840
Raw,1719424327612,291410345000000,18,,-1403168135267750909,0.26758575439453125,15000263.214111328,1.9531249475624988,266.3356301245171,69,11,0.0,16399,323545527035523,27,32.8,-100.86515808105469,0.6769999861717224,16,0.0,0.0,1575420030,,,,0,,1,2.47,29.4,0.0,0.0,,,C,300556897982840
Raw,1719424327612,291410345000000,18,,-1403168135267750909,0.26758575439453125,15000263.214111328,1.9531249475624988,266.3356301245171,69,14,0.0,16399,323545521754956,27,32.8,-645.4476318359375,0.6679999828338623,16,0.0,0.0,1575420030,,,,0,,1,2.47,29.4,0.0,0.0,,,C,300556897982840
Raw,1719424327612,291410345000000,18,,-1403168135267750909,0.26758575439453125,15000263.214111328,1.9531249475624988,266.3356301245171,69,16,0.0,16399,323545529736564,24,33.7,292.648193359375,0.10599999874830246,16,0.0,1902.9177342976868,1575420030,,,,0,,1,2.47,30.300000000000004,0.0,0.0,,,C,300556897982840
Raw,1719424327612,291410345000000,18,,-1403168135267750909,0.26758575439453125,15000263.214111328,1.9531249475624988,266.3356301245171,69,20,0.0,16399,323545523837795,24,33.9,-658.5490112304688,0.09700000286102295,16,0.0,1902.9177342976868,1575420030,,,,0,,1,2.47,30.5,0.0,0.0,,,C,300556897982840
Raw,1719424327612,291410345000000,18,,-1403168135267750909,0.26758575439453125,15000263.214111328,1.9531249475624988,266.3356301245171,69,30,0.0,16399,323545531870770,31,32.3,-463.3365478515625,0.6829999685287476,16,0.0,0.0,1575420030,,,,0,,1,2.47,28.9,0.0,0.0,,,C,300556897982840
Raw,1719424327612,291410345000000,18,,-1403168135267750909,0.26758575439453125,15000263.214111328,1.9531249475624988,266.3356301245171,69,194,0.0,35,2,16,37.9,33.135955810546875,0.05790000408887863,16,0.0,1902.9177342976868,1575420030,,,,0,,4,2.47,34.5,0.0,0.0,,,C,300556897982840
Raw,1719424327612,291410345000000,18,,-1403168135267750909,0.26758575439453125,15000263.214111328,1.9531249475624988,266.3356301245171,69,97,0.0,35,2,17,37.4,257.7430725097656,0.6800000071525574,16,0.0,0.0,1600312450,,,,0,,3,1.77,33.4,0.0,20000.0,,,C,300556897982840
Raw,1719424327612,291410345000000,18,,-1403168135267750909,0.26758575439453125,15000263.214111328,1.9531249475624988,266.3356301245171,69,100,0.0,1,843111,16,38.0,729.1113891601562,1.19350004196167,16,0.0,0.0,1602000000,,,,0,,3,1.77,34.0,0.0,20000.0,,,C,300556897982840
Status,,39,0,1,3,1575420030,29.40,143.0,28.0,0,1,1,24.4
Status,,39,1,1,4,1575420030,29.80,64.0,40.0,0,1,1,24.8
Status,,39,2,1,6,1575420030,29.60,254.0,30.0,0,1,1,24.6
Status,,39,3,1,7,1575420030,29.90,258.0,68.0,0,1,1,24.9
Status,,39,4,1,9,1575420030,30.50,5.0,61.0,0,1,1,25.5
Status,,39,5,1,11,1575420030,29.50,298.0,19.0,0,1,1,24.5
Status,,39,6,1,14,1575420030,29.30,0.0,0.0,0,1,0,24.3
Status,,39,7,1,16,1575420030,30.10,53.0,22.0,0,1,1,25.1
Status,,39,8,1,20,1575420030,30.40,320.0,7.0,0,1,1,25.4
Status,,39,9,1,30,1575420030,29.70,239.0,35.0,0,1,1,24.7
Status,,39,10,3,2,1599750020,0.00,12.0,54.0,0,1,0,0.0
Status,,39,11,3,13,1600875010,0.00,184.0,47.0,0,1,0,0.0
Status,,39,12,3,12,1601437440,0.00,74.0,69.0,0,1,0,0.0
Status,,39,13,3,1,1602562560,0.00,90.0,37.0,0,1,0,0.0
Status,,39,14,3,19,1603687550,0.00,330.0,3.0,0,1,0,0.0
Status,,39,15,3,3,1604812540,0.00,319.0,18.0,0,1,0,0.0
Status,,39,16,5,5,1561097980,28.20,139.0,45.0,0,1,0,23.2
Status,,39,17,5,2,1561097980,0.00,113.0,25.0,0,1,0,0.0
Status,,39,18,5,3,1561097980,0.00,98.0,2.0,0,1,0,0.0
Status,,39,19,5,6,1561097980,0.00,50.0,14.0,0,1,0,0.0
Status,,39,20,5,7,1561097980,0.00,97.0,14.0,0,1,0,0.0
Status,,39,21,5,9,1561097980,0.00,45.0,30.0,0,1,0,0.0
Status,,39,22,5,10,1561097980,0.00,108.0,15.0,0,1,0,0.0
Status,,39,23,5,12,1561097980,0.00,0.0,0.0,0,1,0,0.0
Status,,39,24,5,16,1561097980,0.00,50.0,12.0,0,1,0,0.0
Status,,39,25,5,19,1561097980,0.00,74.0,67.0,0,1,0,0.0
Status,,39,26,5,20,1561097980,0.00,113.0,23.0,0,1,0,0.0
Status,,39,27,5,22,1561097980,0.00,322.0,43.0,0,1,0,0.0
Status,,39,28,5,35,1561097980,0.00,0.0,0.0,0,1,0,0.0
Status,,39,29,5,36,1561097980,0.00,178.0,69.0,0,1,0,0.0
Status,,39,30,4,194,1575420030,34.90,0.0,0.0,0,1,0,29.9
Status,,39,31,6,4,1575420030,0.00,305.0,38.0,0,1,0,0.0
Status,,39,32,6,10,1575420030,0.00,260.0,33.0,0,1,0,0.0
Status,,39,33,6,11,1575420030,0.00,291.0,25.0,0,1,0,0.0
Status,,39,34,6,12,1575420030,0.00,232.0,30.0,0,1,0,0.0
Status,,39,35,6,19,1575420030,0.00,42.0,54.0,0,1,0,0.0
Status,,39,36,6,21,1575420030,0.00,87.0,43.0,0,1,0,0.0
Status,,39,37,6,27,1575420030,0.00,39.0,11.0,0,1,0,0.0
Status,,39,38,6,33,1575420030,0.00,182.0,5.0,0,1,1,0.0
Raw,1719424328612,291411345000000,18,,-1403168135267750910,0.28410911560058594,15000526.428222656,-0.9765624737812494,266.3356301245171,69,3,0.0,16399,323546530898104,27,32.8,634.9814453125,0.6814999580383301,16,0.0,0.0,1575420030,,,,0,,1,2.5,29.4,0.0,0.0,,,C,300557892148986
Raw,1719424328612,291411345000000,18,,-1403168135267750910,0.28410911560058594,15000526.428222656,-0.9765624737812494,266.3356301245171,69,4,0.0,16399,323546534002671,27,33.2,287.5527648925781,0.6375000476837158,16,0.0,0.0,1575420030,,,,0,,1,2.5,29.800000000000004,0.0,0.0,,,C,300557892148986
Raw,1719424328612,291411345000000,18,,-1403168135267750910,0.28410911560058594,15000526.428222656,-0.9765624737812494,266.3356301245171,69,6,0.0,16399,323546531425843,27,33.0,330.6257629394531,0.6330000162124634,16,0.0,0.0,1575420030,,,,0,,1,2.5,29.6,0.0,0.0,,,C,300557892148986
Raw,1719424328612,291411345000000,18,,-1403168135267750910,0.28410911560058594,15000526.428222656,-0.9765624737812494,266.3356301245171,69,7,0.0,16399,323546536533808,27,33.3,-132.2445831298828,0.640500009059906,16,0.0,0.0,1575420030,,,,0,,1,2.5,29.9,0.0,0.0,,,C,300557892148986
Raw,1719424328612,291411345000000,18,,-1403168135267750910,0.28410911560058594,15000526.428222656,-0.9765624737812494,266.3356301245171,69,9,0.0,16399,323546537966617,24,33.9,-46.2700080871582,0.11800000071525574,16,0.0,1902.9177342976868,1575420030,,,,0,,1,2.5,30.5,0.0,0.0,,,C,300557892148986
Raw,1719424328612,291411345000000,18,,-1403168135267750910,0.28410911560058594,15000526.428222656,-0.9765624737812494,266.3356301245171,69,11,0.0,16399,323546527035848,27,32.9,-100.7985610961914,0.6769999861717224,16,0.0,0.0,1575420030,,,,0,,1,2.5,29.5,0.0,0.0,,,C,300557892148986
Raw,1719424328612,291411345000000,18,,-1403168135267750910,0.28410911560058594,15000526.428222656,-0.9765624737812494,266.3356301245171,69,14,0.0,16399,323546521757154,27,32.7,-644.7529907226562,0.6679999828338623,16,0.0,0.0,1575420030,,,,0,,1,2.5,29.300000000000004,0.0,0.0,,,C,300557892148986
Raw,1719424328612,291411345000000,18,,-1403168135267750910,0.28410911560058594,15000526.428222656,-0.9765624737812494,266.3356301245171,69,16,0.0,16399,323546529735604,24,33.5,293.1095886230469,0.10599999874830246,16,0.0,1902.9177342976868,1575420030,,,,0,,1,2.5,30.1,0.0,0.0,,,C,300557892148986
Raw,1719424328612,291411345000000,18,,-1403168135267750910,0.28410911560058594,15000526.428222656,-0.9765624737812494,266.3356301245171,69,20,0.0,16399,323546523839963,24,33.8,-658.2122192382812,0.09700000286102295,16,0.0,1902.9177342976868,1575420030,,,,0,,1,2.5,30.4,0.0,0.0,,,C,300557892148986
Raw,1719424328612,291411345000000,18,,-1403168135267750910,0.28410911560058594,15000526.428222656,-0.9765624737812494,266.3356301245171,69,30,0.0,16399,323546531872344,27,33.1,-463.3555603027344,0.6330000162124634,16,0.0,0.0,1575420030,,,,0,,1,2.5,29.700000000000003,0.0,0.0,,,C,300557892148986
Raw,1719424328612,291411345000000,18,,-1403168135267750910,0.28410911560058594,15000526.428222656,-0.9765624737812494,266.3356301245171,69,194,0.0,35,10,16,38.3,33.500343322753906,0.05790000408887863,16,0.0,1902.9177342976868,1575420030,,,,0,,4,2.5,34.9,0.0,0.0,,,C,300557892148986
Raw,1719424328612,291411345000000,18,,-1403168135267750910,0.28410911560058594,15000526.428222656,-0.9765624737812494,266.3356301245171,69,97,0.0,35,11,16,38.3,257.73370361328125,0.4300000071525574,16,0.0,0.0,1600312450,,,,0,,3,1.77,34.3,0.0,20000.0,,,C,300557892148986
Raw,1719424328612,291411345000000,18,,-1403168135267750910,0.28410911560058594,15000526.428222656,-0.9765624737812494,266.3356301245171,69,100,0.0,35,11,14,39.2,729.90673828125,0.5635000467300415,16,0.0,0.0,1602000000,,,,0,,3,1.77,35.2,0.0,20000.0,,,C,300557892148986
Status,,39,0,1,3,1575420030,28.50,143.0,28.0,0,1,1,23.5
Status,,39,1,1,4,1575420030,28.60,64.0,40.0,0,1,1,23.6
Status,,39,2,1,6,1575420030,28.50,254.0,30.0,0,1,1,23.5
Status,,39,3,1,7,1575420030,28.30,258.0,68.0,0,1,1,23.3
Status,,39,4,1,9,1575420030,28.50,5.0,61.0,0,1,1,23.5
Status,,39,5,1,11,1575420030,29.10,298.0,19.0,0,1,1,24.1
Status,,39,6,1,14,1575420030,28.60,0.0,0.0,0,1,0,23.6
Status,,39,7,1,16,1575420030,29.10,53.0,22.0,0,1,1,24.1
Status,,39,8,1,20,1575420030,29.20,320.0,7.0,0,1,1,24.2
Status,,39,9,1,30,1575420030,29.00,239.0,35.0,0,1,1,24.0
Status,,39,10,3,2,1599750020,0.00,12.0,54.0,0,1,0,0.0
Status,,39,11,3,13,1600875010,0.00,184.0,47.0,0,1,0,0.0
Status,,39,12,3,12,1601437440,0.00,74.0,69.0,0,1,0,0.0
Status,,39,13,3,1,1602562560,0.00,90.0,37.0,0,1,0,0.0
Status,,39,14,3,19,1603687550,0.00,330.0,3.0,0,1,0,0.0
Status,,39,15,3,3,1604812540,0.00,319.0,18.0,0,1,0,0.0
Status,,39,16,5,5,1561097980,28.20,139.0,45.0,0,1,0,23.2
Status,,39,17,5,2,1561097980,0.00,113.0,25.0,0,1,0,0.0
Status,,39,18,5,3,1561097980,0.00,98.0,2.0,0,1,0,0.0
Status,,39,19,5,6,1561097980,0.00,50.0,14.0,0,1,0,0.0
Status,,39,20,5,7,1561097980,0.00,97.0,14.0,0,1,0,0.0
Status,,39,21,5,9,1561097980,0.00,45.0,30.0,0,1,0,0.0
Status,,39,22,5,10,1561097980,0.00,108.0,15.0,0,1,0,0.0
Status,,39,23,5,12,1561097980,0.00,0.0,0.0,0,1,0,0.0
Status,,39,24,5,16,1561097980,0.00,50.0,12.0,0,1,0,0.0
Status,,39,25,5,19,1561097980,0.00,74.0,67.0,0,1,0,0.0
Status,,39,26,5,20,1561097980,0.00,113.0,23.0,0,1,0,0.0
Status,,39,27,5,22,1561097980,0.00,322.0,43.0,0,1,0,0.0
Status,,39,28,5,35,1561097980,0.00,0.0,0.0,0,1,0,0.0
Status,,39,29,5,36,1561097980,0.00,178.0,69.0,0,1,0,0.0
Status,,39,30,4,194,1575420030,34.70,0.0,0.0,0,1,0,29.7
Status,,39,31,6,4,1575420030,0.00,305.0,38.0,0,1,0,0.0
Status,,39,32,6,10,1575420030,0.00,260.0,33.0,0,1,0,0.0
Status,,39,33,6,11,1575420030,0.00,291.0,25.0,0,1,0,0.0
Status,,39,34,6,12,1575420030,0.00,232.0,30.0,0,1,0,0.0
Status,,39,35,6,19,1575420030,0.00,42.0,54.0,0,1,0,0.0
Status,,39,36,6,21,1575420030,0.00,87.0,43.0,0,1,0,0.0
Status,,39,37,6,27,1575420030,0.00,39.0,11.0,0,1,0,0.0
Status,,39,38,6,33,1575420030,0.00,182.0,5.0,0,1,1,0.0
Raw,1719424329612,291412345000000,18,,-1403168135267750907,0.21963787078857422,15000789.642333984,2.9296875207535953,266.3356301245171,69,3,0.0,16399,323547530896050,31,31.9,634.3629760742188,0.7414999604225159,16,0.0,0.0,1575420030,,,,0,,1,2.45,28.5,0.0,0.0,,,C,300558892107059
Raw,1719424329612,291412345000000,18,,-1403168135267750907,0.21963787078857422,15000789.642333984,2.9296875207535953,266.3356301245171,69,4,0.0,16399,323547534001694,31,32.0,287.35296630859375,0.6875,16,0.0,0.0,1575420030,,,,0,,1,2.45,28.6,0.0,0.0,,,C,300558892107059
Raw,1719424329612,291412345000000,18,,-1403168135267750907,0.21963787078857422,15000789.642333984,2.9296875207535953,266.3356301245171,69,6,0.0,16399,323547531424737,31,31.9,330.91119384765625,0.7429999709129333,16,0.0,0.0,1575420030,,,,0,,1,2.45,28.5,0.0,0.0,,,C,300558892107059
Raw,1719424329612,291412345000000,18,,-1403168135267750907,0.21963787078857422,15000789.642333984,2.9296875207535953,266.3356301245171,69,7,0.0,16399,323547536534332,31,31.7,-132.06381225585938,0.750499963760376,16,0.0,0.0,1575420030,,,,0,,1,2.45,28.3,0.0,0.0,,,C,300558892107059
Raw,1719424329612,291412345000000,18,,-1403168135267750907,0.21963787078857422,15000789.642333984,2.9296875207535953,266.3356301245171,69,9,0.0,16399,323547537966767,31,31.9,-47.04059600830078,0.7519999742507935,16,0.0,0.0,1575420030,,,,0,,1,2.45,28.5,0.0,0.0,,,C,300558892107059
Raw,1719424329612,291412345000000,18,,-1403168135267750907,0.21963787078857422,15000789.642333984,2.9296875207535953,266.3356301245171,69,11,0.0,16399,323547527036163,27,32.5,-100.38941955566406,0.6769999861717224,16,0.0,0.0,1575420030,,,,0,,1,2.45,29.1,0.0,0.0,,,C,300558892107059
Raw,1719424329612,291412345000000,18,,-1403168135267750907,0.21963787078857422,15000789.642333984,2.9296875207535953,266.3356301245171,69,14,0.0,16399,323547521759257,31,32.0,-645.247802734375,0.6679999828338623,16,0.0,0.0,1575420030,,,,0,,1,2.45,28.6,0.0,0.0,,,C,300558892107059
Raw,1719424329612,291412345000000,18,,-1403168135267750907,0.21963787078857422,15000789.642333984,2.9296875207535953,266.3356301245171,69,16,0.0,16399,323547529734659,27,32.5,292.75732421875,0.6799999475479126,16,0.0,0.0,1575420030,,,,0,,1,2.45,29.1,0.0,0.0,,,C,300558892107059
Raw,1719424329612,291412345000000,18,,-1403168135267750907,0.21963787078857422,15000789.642333984,2.9296875207535953,266.3356301245171,69,20,0.0,16399,323547523842192,27,32.6,-658.1116333007812,0.6710000038146973,16,0.0,0.0,1575420030,,,,0,,1,2.45,29.200000000000003,0.0,0.0,,,C,300558892107059
Raw,1719424329612,291412345000000,18,,-1403168135267750907,0.21963787078857422,15000789.642333984,2.9296875207535953,266.3356301245171,69,30,0.0,16399,323547531873895,27,32.4,-463.5553894042969,0.6829999685287476,16,0.0,0.0,1575420030,,,,0,,1,2.45,29.0,0.0,0.0,,,C,300558892107059
Raw,1719424329612,291412345000000,18,,-1403168135267750907,0.21963787078857422,15000789.642333984,2.9296875207535953,266.3356301245171,69,194,0.0,35,7,16,38.1,33.24895477294922,0.05790000408887863,16,0.0,1902.9177342976868,1575420030,,,,0,,4,2.45,34.7,0.0,0.0,,,C,300558892107059
Raw,1719424329612,291412345000000,18,,-1403168135267750907,0.21963787078857422,15000789.642333984,2.9296875207535953,266.3356301245171,69,97,0.0,35,17,17,37.4,257.73370361328125,0.4699999988079071,16,0.0,0.0,1600312450,,,,0,,3,1.72,33.4,0.0,20000.0,,,C,300558892107059
Raw,1719424329612,291412345000000,18,,-1403168135267750907,0.21963787078857422,15000789.642333984,2.9296875207535953,266.3356301245171,69,100,0.0,35,6,16,38.6,729.2142944335938,0.43150001764297485,16,0.0,0.0,1602000000,,,,0,,3,1.72,34.6,0.0,20000.0,,,C,300558892107059
Status,,39,0,1,3,1575420030,29.40,143.0,28.0,0,1,1,24.4
Status,,39,1,1,4,1575420030,29.80,64.0,40.0,0,1,1,24.8
Status,,39,2,1,6,1575420030,29.40,254.0,30.0,0,1,1,24.4
Status,,39,3,1,7,1575420030,29.70,258.0,68.0,0,1,1,24.7
Status,,39,4,1,9,1575420030,30.50,5.0,61.0,0,1,1,25.5
Status,,39,5,1,11,1575420030,29.80,298.0,19.0,0,1,1,24.8
Status,,39,6,1,14,1575420030,29.50,0.0,0.0,0,1,0,24.5
Status,,39,7,1,16,1575420030,30.00,53.0,22.0,0,1,1,25.0
Status,,39,8,1,20,1575420030,30.50,320.0,7.0,0,1,1,25.5
Status,,39,9,1,30,1575420030,29.70,239.0,35.0,0,1,1,24.7
Status,,39,10,3,2,1599750020,0.00,12.0,54.0,0,1,0,0.0
Status,,39,11,3,13,1600875010,0.00,184.0,47.0,0,1,0,0.0
Status,,39,12,3,12,1601437440,0.00,74.0,69.0,0,1,0,0.0
Status,,39,13,3,1,1602562560,0.00,90.0,37.0,0,1,0,0.0
Status,,39,14,3,19,1603687550,0.00,330.0,3.0,0,1,0,0.0
Status,,39,15,3,3,1604812540,0.00,319.0,18.0,0,1,0,0.0
Status,,39,16,5,5,1561097980,28.20,139.0,45.0,0,1,0,23.2
Status,,39,17,5,2,1561097980,0.00,113.0,25.0,0,1,0,0.0
Status,,39,18,5,3,1561097980,0.00,98.0,2.0,0,1,0,0.0
Status,,39,19,5,6,1561097980,0.00,50.0,14.0,0,1,0,0.0
Status,,39,20,5,7,1561097980,0.00,97.0,14.0,0,1,0,0.0
Status,,39,21,5,9,1561097980,0.00,45.0,30.0,0,1,0,0.0
Status,,39,22,5,10,1561097980,0.00,108.0,15.0,0,1,0,0.0
Status,,39,23,5,12,1561097980,0.00,0.0,0.0,0,1,0,0.0
Status,,39,24,5,16,1561097980,0.00,50.0,12.0,0,1,0,0.0
Status,,39,25,5,19,1561097980,0.00,74.0,67.0,0,1,0,0.0
Status,,39,26,5,20,1561097980,0.00,113.0,23.0,0,1,0,0.0
Status,,39,27,5,22,1561097980,0.00,322.0,43.0,0,1,0,0.0
Status,,39,28,5,35,1561097980,0.00,0.0,0.0,0,1,0,0.0
Status,,39,29,5,36,1561097980,0.00,178.0,69.0,0,1,0,0.0
Status,,39,30,4,194,1575420030,34.80,0.0,0.0,0,1,0,29.8
Status,,39,31,6,4,1575420030,0.00,305.0,38.0,0,1,0,0.0
Status,,39,32,6,10,1575420030,0.00,260.0,33.0,0,1,0,0.0
Status,,39,33,6,11,1575420030,0.00,291.0,25.0,0,1,0,0.0
Status,,39,34,6,12,1575420030,0.00,232.0,30.0,0,1,0,0.0
Status,,39,35,6,19,1575420030,0.00,42.0,54.0,0,1,0,0.0
Status,,39,36,6,21,1575420030,0.00,87.0,43.0,0,1,0,0.0
Status,,39,37,6,27,1575420030,0.00,39.0,11.0,0,1,0,0.0
Status,,39,38,6,33,1575420030,0.00,182.0,5.0,0,1,1,0.0
Raw,1719424330612,291413345000000,18,,-1403168135267750906,0.20311450958251953,15001052.856445312,0.9765624737812494,267.00514033390374,69,3,0.0,16399,323548530893933,27,32.8,634.5437622070312,0.6814999580383301,16,0.0,0.0,1575420030,,,,0,,1,2.45,29.4,0.0,0.0,,,C,300559894455184
Raw,1719424330612,291413345000000,18,,-1403168135267750906,0.20311450958251953,15001052.856445312,0.9765624737812494,267.00514033390374,69,4,0.0,16399,323548534000783,27,33.2,286.9342956542969,0.6375000476837158,16,0.0,0.0,1575420030,,,,0,,1,2.45,29.800000000000004,0.0,0.0,,,C,300559894455184
Raw,1719424330612,291413345000000,18,,-1403168135267750906,0.20311450958251953,15001052.856445312,0.9765624737812494,267.00514033390374,69,6,0.0,16399,323548531423663,27,32.8,331.1966247558594,0.6829999685287476,16,0.0,0.0,1575420030,,,,0,,1,2.45,29.4,0.0,0.0,,,C,300559894455184
