# 
# Header Description:
# 
# Version: v3.0.6.4 Platform: 14 Manufacturer: OnePlus Model: CPH2581
# 
# Raw,utcTimeMillis,TimeNanos,LeapSecond,TimeUncertaintyNanos,FullBiasNanos,BiasNanos,BiasUncertaintyNanos,DriftNanosPerSecond,DriftUncertaintyNanosPerSecond,HardwareClockDiscontinuityCount,Svid,TimeOffsetNanos,State,ReceivedSvTimeNanos,ReceivedSvTimeUncertaintyNanos,Cn0DbHz,PseudorangeRateMetersPerSecond,PseudorangeRateUncertaintyMetersPerSecond,AccumulatedDeltaRangeState,AccumulatedDeltaRangeMeters,AccumulatedDeltaRangeUncertaintyMeters,CarrierFrequencyHz,CarrierCycles,CarrierPhase,CarrierPhaseUncertainty,MultipathIndicator,SnrInDb,ConstellationType,AgcDb,BasebandCn0DbHz,FullInterSignalBiasNanos,FullInterSignalBiasUncertaintyNanos,SatelliteInterSignalBiasNanos,SatelliteInterSignalBiasUncertaintyNanos,CodeType,ChipsetElapsedRealtimeNanos
# 
# UncalAccel,utcTimeMillis,elapsedRealtimeNanos,UncalAccelXMps2,UncalAccelYMps2,UncalAccelZMps2,BiasXMps2,BiasYMps2,BiasZMps2
# 
# Accel,utcTimeMillis,elapsedRealtimeNanos,AccelXMps2,AccelYMps2,AccelZMps2
# 
# UncalGyro,utcTimeMillis,elapsedRealtimeNanos,UncalGyroXRadPerSec,UncalGyroYRadPerSec,UncalGyroZRadPerSec,DriftXRadPerSec,DriftYRadPerSec,DriftZRadPerSec
# 
# Gyro,utcTimeMillis,elapsedRealtimeNanos,GyroXRadPerSec,GyroYRadPerSec,GyroZRadPerSec
# 
# UncalMag,utcTimeMillis,elapsedRealtimeNanos,UncalMagXMicroT,UncalMagYMicroT,UncalMagZMicroT,BiasXMicroT,BiasYMicroT,BiasZMicroT
# 
# Mag,utcTimeMillis,elapsedRealtimeNanos,MagXMicroT,MagYMicroT,MagZMicroT
# 
# OrientationDeg,utcTimeMillis,elapsedRealtimeNanos,yawDeg,rollDeg,pitchDeg
# 
# Fix,Provider,LatitudeDegrees,LongitudeDegrees,AltitudeMeters,SpeedMps,AccuracyMeters,BearingDegrees,UnixTimeMillis,SpeedAccuracyMps,BearingAccuracyDegrees,elapsedRealtimeNanos,VerticalAccuracyMeters,MockLocation,NumberOfUsedSignals,VerticalSpeedAccuracyMps,SolutionType
# 
# Nav,Svid,Type,Status,MessageId,Sub-messageId,Data(Bytes)
# 
# Status,UnixTimeMillis,SignalCount,SignalIndex,ConstellationType,Svid,CarrierFrequencyHz,Cn0DbHz,AzimuthDegrees,ElevationDegrees,UsedInFix,HasAlmanacData,HasEphemerisData,BasebandCn0DbHz
# 
# Agc,utcTimeMillis,TimeNanos,LeapSecond,TimeUncertaintyNanos,FullBiasNanos,BiasNanos,BiasUncertaintyNanos,DriftNanosPerSecond,DriftUncertaintyNanosPerSecond,HardwareClockDiscontinuityCount,AgcDb,CarrierFrequencyHz,ConstellationType
# 
UncalGyro,1719886365825,90687531897408,0.07150582,-0.09760478,0.027164223,0.0016109688,0.0004827658,0.00095539034
UncalAccel,1719886365825,90687531897408,-0.13878371,8.233703,5.5597234,0.0,0.0,0.0
UncalMag,1719886365828,90687534374856,109.96876,-27.206251,-89.4,88.96693,-10.766889,-53.444653
UncalGyro,1719886365835,90687541887669,0.04807002,-0.12104058,0.04420844,0.0016109688,0.0004827658,0.00095539034
UncalAccel,1719886365835,90687541887669,0.038285162,8.181061,5.3443694,0.0,0.0,0.0
UncalMag,1719886365838,90687544374856,109.78126,-27.375002,-89.11875,88.96693,-10.766889,-53.444653
UncalGyro,1719886365845,90687551761002,0.027830012,-0.103996366,0.048469495,0.0016109688,0.0004827658,0.00095539034
UncalAccel,1719886365845,90687551761002,0.13878371,8.161918,5.377869,0.0,0.0,0.0
UncalMag,1719886365848,90687554374856,109.725006,-27.300001,-88.89375,88.96693,-10.766889,-53.444653
OrientationDeg,1719886365835,90687541887669,316.0,0.0,-56.0
OrientationDeg,1719886365845,90687551761002,314.0,0.0,-56.0
Fix,FLP,32.0477314000,34.8676814000,76.80000305175781,0.016746875,5.631,,1719886365546,0.7477358,,90687252725211,1.3933069,0,,,
UncalGyro,1719886365855,90687561868190,0.01824264,-0.08482162,0.045273706,0.0016109688,0.0004827658,0.00095539034
UncalAccel,1719886365855,90687561868190,0.16749759,8.200203,5.430511,0.0,0.0,0.0
OrientationDeg,1719886365855,90687561868190,313.0,0.0,-56.0
UncalMag,1719886365858,90687564374856,109.8,-27.468752,-88.725006,88.96693,-10.766889,-53.444653
UncalGyro,1719886365865,90687571819492,0.023568958,-0.069907926,0.035686333,0.0016109688,0.0004827658,0.00095539034
UncalAccel,1719886365865,90687571819492,0.22013968,8.209774,5.3826547,0.0,0.0,0.0
UncalMag,1719886365868,90687574374856,109.818756,-27.54375,-88.425,88.96693,-10.766889,-53.444653
OrientationDeg,1719886365865,90687571819492,313.0,-1.0,-56.0
UncalGyro,1719886365875,90687581848658,0.034221593,-0.045406863,0.021837905,0.0016109688,0.0004827658,0.00095539034
OrientationDeg,1719886365875,90687581848658,312.0,-1.0,-56.0
UncalAccel,1719886365875,90687581848658,0.2727818,8.209774,5.2438707,0.0,0.0,0.0
UncalMag,1719886365878,90687584374856,109.55625,-27.73125,-88.575005,88.96693,-10.766889,-53.444653
UncalGyro,1719886365885,90687591886940,0.045939494,-0.0070573715,0.0015978955,0.0016109688,0.0004827658,0.00095539034
UncalAccel,1719886365885,90687591886940,0.2536392,8.185846,5.1379886,0.0,0.0,0.0
OrientationDeg,1719886365885,90687591886940,312.0,-1.0,-56.0
UncalMag,1719886365888,90687594374856,109.387505,-27.69375,-88.6125,88.96693,-10.766889,-53.444653
UncalGyro,1719886365895,90687601873606,0.04807002,0.032224227,-0.016511586,0.0016109688,0.0004827658,0.00095539034
UncalAccel,1719886365895,90687601873606,0.15792629,8.161918,5.1475596,0.0,0.0,0.0
OrientationDeg,1719886365895,90687601873606,312.0,-1.0,-57.0
UncalMag,1719886365898,90687604374856,109.65,-27.6,-88.668755,88.96693,-10.766889,-53.444653
UncalGyro,1719886365905,90687611712461,0.039547913,0.04820318,-0.02929475,0.0016109688,0.0004827658,0.00095539034
UncalAccel,1719886365905,90687611712461,0.11006984,8.147561,5.1960144,0.0,0.0,0.0
OrientationDeg,1719886365905,90687611712461,312.0,-1.0,-57.0
UncalMag,1719886365908,90687614374856,109.481255,-27.768751,-88.387505,88.96693,-10.766889,-53.444653
UncalGyro,1719886365915,90687621684388,0.021438431,0.041811597,-0.042077914,0.0016109688,0.0004827658,0.00095539034
UncalAccel,1719886365915,90687621684388,0.043070808,8.2049885,5.152345,0.0,0.0,0.0
OrientationDeg,1719886365915,90687621684388,312.0,-1.0,-57.0
UncalMag,1719886365918,90687624374856,109.425,-27.73125,-88.537506,88.96693,-10.766889,-53.444653
UncalGyro,1719886365925,90687631692669,-0.006258424,0.034354754,-0.045273706,0.0016109688,0.0004827658,0.00095539034
UncalAccel,1719886365925,90687631692669,-0.047856454,8.267202,5.1236315,0.0,0.0,0.0
UncalMag,1719886365928,90687634374856,109.387505,-27.768751,-88.6875,88.96693,-10.766889,-53.444653
OrientationDeg,1719886365925,90687631692669,313.0,-1.0,-57.0
UncalGyro,1719886365935,90687641668242,-0.042477388,0.025832644,-0.039947387,0.0016109688,0.0004827658,0.00095539034
UncalAccel,1719886365935,90687641668242,-0.033499517,8.267202,5.1762733,0.0,0.0,0.0
OrientationDeg,1719886365935,90687641668242,313.0,0.0,-57.0
UncalMag,1719886365938,90687644374856,109.31251,-27.7875,-88.6125,88.96693,-10.766889,-53.444653
UncalGyro,1719886365945,90687651789231,-0.076565824,0.0087884255,-0.035686333,0.0016109688,0.0004827658,0.00095539034
UncalAccel,1719886365945,90687651789231,0.047856454,8.2049885,5.267799,0.0,0.0,0.0
OrientationDeg,1719886365945,90687651789231,313.0,0.0,-57.0
UncalMag,1719886365948,90687654374856,109.256256,-27.618752,-88.762505,88.96693,-10.766889,-53.444653
UncalGyro,1719886365955,90687661779544,-0.10106689,-0.011318427,-0.039947387,0.0016109688,0.0004827658,0.00095539034
UncalAccel,1719886365955,90687661779544,0.124426775,8.152347,5.430511,0.0,0.0,0.0
OrientationDeg,1719886365955,90687661779544,313.0,0.0,-57.0
UncalMag,1719886365958,90687664374856,109.31251,-27.50625,-88.74375,88.96693,-10.766889,-53.444653
UncalGyro,1719886365965,90687671769700,-0.11065426,-0.03581949,-0.047404233,0.0016109688,0.0004827658,0.00095539034
UncalAccel,1719886365965,90687671769700,0.11964113,8.161918,5.569295,0.0,0.0,0.0
UncalMag,1719886365968,90687674374856,109.55625,-27.50625,-88.70625,88.96693,-10.766889,-53.444653
OrientationDeg,1719886365965,90687671769700,313.0,0.0,-56.0
UncalGyro,1719886365975,90687681759961,-0.1063932,-0.057124764,-0.047404233,0.0016109688,0.0004827658,0.00095539034
UncalAccel,1719886365975,90687681759961,0.11964113,8.209774,5.6075797,0.0,0.0,0.0
OrientationDeg,1719886365975,90687681759961,313.0,0.0,-56.0
UncalMag,1719886365978,90687684374856,109.443756,-27.54375,-88.725006,88.96693,-10.766889,-53.444653
UncalGyro,1719886365985,90687691633971,-0.09147952,-0.049667917,-0.039947387,0.0016109688,0.0004827658,0.00095539034
UncalAccel,1719886365985,90687691633971,0.11964113,8.248059,5.5405807,0.0,0.0,0.0
UncalMag,1719886365988,90687694374856,109.50001,-27.6375,-88.78125,88.96693,-10.766889,-53.444653
OrientationDeg,1719886365985,90687691633971,313.0,0.0,-56.0
UncalGyro,1719886365995,90687701612617,-0.06378266,-0.010253162,-0.03249054,0.0016109688,0.0004827658,0.00095539034
UncalAccel,1719886365996,90687701612617,0.14356937,8.233703,5.511867,0.0,0.0,0.0
OrientationDeg,1719886365995,90687701612617,313.0,0.0,-56.0
UncalMag,1719886365998,90687704374856,109.631256,-27.7875,-88.55625,88.96693,-10.766889,-53.444653
UncalGyro,1719886366005,90687711614283,-0.027563697,0.034354754,-0.02929475,0.0016109688,0.0004827658,0.00095539034
UncalAccel,1719886366005,90687711614283,0.148355,8.219346,5.49751,0.0,0.0,0.0
OrientationDeg,1719886366005,90687711614283,313.0,0.0,-56.0
UncalMag,1719886366008,90687714374856,109.6125,-27.825,-88.631256,88.96693,-10.766889,-53.444653
UncalGyro,1719886366015,90687721595221,0.0043942127,0.06844319,-0.02929475,0.0016109688,0.0004827658,0.00095539034
UncalAccel,1719886366015,90687721595221,0.1052842,8.224132,5.4783673,0.0,0.0,0.0
OrientationDeg,1719886366015,90687721595221,313.0,0.0,-56.0
UncalMag,1719886366018,90687724374856,109.68751,-27.7875,-89.043755,88.96693,-10.766889,-53.444653
UncalGyro,1719886366025,90687731749804,0.021438431,0.08016109,-0.02609896,0.0016109688,0.0004827658,0.00095539034
UncalAccel,1719886366025,90687731749804,-0.043070808,8.219346,5.5405807,0.0,0.0,0.0
OrientationDeg,1719886366025,90687731749804,313.0,0.0,-56.0
UncalMag,1719886366028,90687734374856,109.96876,-27.862501,-88.74375,88.96693,-10.766889,-53.444653
UncalGyro,1719886366035,90687741748346,0.024634222,0.05992108,-0.014381059,0.0016109688,0.0004827658,0.00095539034
UncalAccel,1719886366035,90687741748346,-0.18185452,8.248059,5.578866,0.0,0.0,0.0
OrientationDeg,1719886366035,90687741748346,313.0,0.0,-56.0
UncalMag,1719886366038,90687744374856,110.100006,-27.91875,-88.74375,88.96693,-10.766889,-53.444653
UncalGyro,1719886366045,90687751730377,0.015046849,0.026897907,0.0015978955,0.0016109688,0.0004827658,0.00095539034
UncalAccel,1719886366045,90687751730377,-0.19621146,8.276773,5.5070815,0.0,0.0,0.0
OrientationDeg,1719886366045,90687751730377,313.0,0.0,-56.0
UncalMag,1719886366048,90687754374856,109.950005,-27.956251,-89.006256,88.96693,-10.766889,-53.444653
UncalGyro,1719886366055,90687761727252,-0.0030626329,0.0013315795,0.016511586,0.0016109688,0.0004827658,0.00095539034
UncalAccel,1719886366055,90687761727252,-0.17228323,8.252846,5.4592247,0.0,0.0,0.0
OrientationDeg,1719886366055,90687761727252,313.0,0.0,-56.0
UncalMag,1719886366058,90687764374856,109.9875,-27.91875,-89.11875,88.96693,-10.766889,-53.444653
UncalGyro,1719886366065,90687771672200,-0.019041587,-0.027297381,0.027164223,0.0016109688,0.0004827658,0.00095539034
UncalAccel,1719886366065,90687771672200,-0.09571291,8.2145605,5.564509,0.0,0.0,0.0
UncalMag,1719886366068,90687774374856,110.100006,-27.825,-89.15625,88.96693,-10.766889,-53.444653
OrientationDeg,1719886366065,90687771672200,313.0,0.0,-56.0
UncalGyro,1719886366075,90687781663815,-0.024367906,-0.06564687,0.030360013,0.0016109688,0.0004827658,0.00095539034
UncalAccel,1719886366075,90687781663815,0.02871387,8.195417,5.741578,0.0,0.0,0.0
OrientationDeg,1719886366075,90687781663815,313.0,0.0,-56.0
UncalMag,1719886366078,90687784374856,109.9875,-27.712502,-89.325005,88.96693,-10.766889,-53.444653
UncalGyro,1719886366085,90687791536367,-0.01691106,-0.10506163,0.020772642,0.0016109688,0.0004827658,0.00095539034
UncalAccel,1719886366085,90687791536367,0.11964113,8.2145605,5.7463636,0.0,0.0,0.0
OrientationDeg,1719886366085,90687791536367,313.0,0.0,-56.0
UncalMag,1719886366088,90687794374856,110.006256,-27.675001,-89.34375,88.96693,-10.766889,-53.444653
UncalGyro,1719886366095,90687801516158,0.0011984216,-0.111453205,0.007989477,0.0016109688,0.0004827658,0.00095539034
UncalAccel,1719886366095,90687801516158,0.11964113,8.300702,5.5980086,0.0,0.0,0.0
OrientationDeg,1719886366095,90687801516158,313.0,0.0,-56.0
UncalMag,1719886366098,90687804374856,109.950005,-27.6,-89.137505,88.96693,-10.766889,-53.444653
UncalGyro,1719886366105,90687811516731,0.021438431,-0.07310372,0.0037284228,0.0016109688,0.0004827658,0.00095539034
UncalAccel,1719886366105,90687811516731,0.14356937,8.329415,5.4113684,0.0,0.0,0.0
UncalMag,1719886366108,90687814374856,109.950005,-27.393751,-89.512505,88.96693,-10.766889,-53.444653
OrientationDeg,1719886366105,90687811516731,313.0,0.0,-56.0
UncalGyro,1719886366115,90687821498606,0.043808967,-0.013448954,0.0037284228,0.0016109688,0.0004827658,0.00095539034
UncalAccel,1719886366115,90687821498606,0.17228323,8.315059,5.3204412,0.0,0.0,0.0
OrientationDeg,1719886366115,90687821498606,313.0,0.0,-56.0
UncalMag,1719886366118,90687824374856,110.06251,-27.281252,-89.4,88.96693,-10.766889,-53.444653
UncalGyro,1719886366125,90687831497096,0.06191845,0.041811597,0.002663159,0.0016109688,0.0004827658,0.00095539034
UncalAccel,1719886366125,90687831497096,0.16749759,8.257631,5.306084,0.0,0.0,0.0
OrientationDeg,1719886366125,90687831497096,313.0,0.0,-56.0
UncalMag,1719886366128,90687834374856,110.100006,-27.093752,-89.34375,88.96693,-10.766889,-53.444653
UncalGyro,1719886366135,90687841480638,0.06511424,0.07376951,-0.0015978955,0.0016109688,0.0004827658,0.00095539034
UncalAccel,1719886366135,90687841480638,0.11006984,8.185846,5.296513,0.0,0.0,0.0
OrientationDeg,1719886366135,90687841480638,313.0,0.0,-56.0
UncalMag,1719886366138,90687844374856,110.025,-26.94375,-89.34375,88.96693,-10.766889,-53.444653
UncalAccel,1719886366145,90687851593867,0.05742774,8.157132,5.267799,0.0,0.0,0.0
UncalGyro,1719886366145,90687851593867,0.05339634,0.079095826,-0.0037284228,0.0016109688,0.0004827658,0.00095539034
OrientationDeg,1719886366145,90687851593867,313.0,0.0,-56.0
UncalMag,1719886366148,90687854374856,110.175,-26.85,-89.325005,88.96693,-10.766889,-53.444653
UncalGyro,1719886366155,90687861590533,0.026764749,0.07057372,0.0005326318,0.0016109688,0.0004827658,0.00095539034
UncalAccel,1719886366155,90687861590533,-0.019142581,8.161918,5.2199426,0.0,0.0,0.0
UncalMag,1719886366158,90687864374856,110.49375,-26.737501,-89.193756,88.96693,-10.766889,-53.444653
OrientationDeg,1719886366155,90687861590533,313.0,0.0,-56.0
UncalGyro,1719886366165,90687871574440,-0.011584742,0.047137916,0.007989477,0.0016109688,0.0004827658,0.00095539034
UncalAccel,1719886366165,90687871574440,-0.043070808,8.157132,5.267799,0.0,0.0,0.0
OrientationDeg,1719886366165,90687871574440,313.0,0.0,-56.0
UncalMag,1719886366168,90687874374856,110.55,-26.831251,-88.875,88.96693,-10.766889,-53.444653
UncalGyro,1719886366175,90687881569804,-0.044607915,0.0109189525,0.014381059,0.0016109688,0.0004827658,0.00095539034
UncalAccel,1719886366175,90687881569804,-0.009571291,8.161918,5.306084,0.0,0.0,0.0
OrientationDeg,1719886366175,90687881569804,313.0,0.0,-56.0
UncalMag,1719886366178,90687884374856,110.62501,-26.906252,-88.89375,88.96693,-10.766889,-53.444653
UncalGyro,1719886366185,90687891438711,-0.065913185,-0.021971062,0.017576851,0.0016109688,0.0004827658,0.00095539034
UncalAccel,1719886366185,90687891438711,0.038285162,8.152347,5.349155,0.0,0.0,0.0
UncalMag,1719886366188,90687894374856,110.49375,-27.206251,-88.818756,88.96693,-10.766889,-53.444653
OrientationDeg,1719886366185,90687891438711,313.0,0.0,-56.0
UncalGyro,1719886366195,90687901421367,-0.07123951,-0.040080544,0.018642114,0.0016109688,0.0004827658,0.00095539034
UncalAccel,1719886366195,90687901421367,0.019142581,8.176275,5.4783673,0.0,0.0,0.0
OrientationDeg,1719886366195,90687901421367,313.0,0.0,-56.0
UncalMag,1719886366198,90687904374856,110.26875,-27.206251,-88.856255,88.96693,-10.766889,-53.444653
UncalGyro,1719886366205,90687911419075,-0.059521604,-0.04860265,0.016511586,0.0016109688,0.0004827658,0.00095539034
UncalAccel,1719886366205,90687911419075,0.07178468,8.17149,5.5022955,0.0,0.0,0.0
OrientationDeg,1719886366205,90687911419075,313.0,0.0,-56.0
UncalMag,1719886366208,90687914374856,110.2125,-27.337502,-88.725006,88.96693,-10.766889,-53.444653
UncalGyro,1719886366215,90687921403294,-0.038216334,-0.033688962,0.013315796,0.0016109688,0.0004827658,0.00095539034
UncalAccel,1719886366215,90687921403294,0.124426775,8.147561,5.4640107,0.0,0.0,0.0
OrientationDeg,1719886366215,90687921403294,313.0,0.0,-56.0
UncalMag,1719886366218,90687924374856,110.475006,-27.431252,-88.6125,88.96693,-10.766889,-53.444653
UncalGyro,1719886366225,90687931399492,-0.011584742,-0.00066578976,0.007989477,0.0016109688,0.0004827658,0.00095539034
UncalAccel,1719886366225,90687931399492,0.11485548,8.209774,5.4352965,0.0,0.0,0.0
OrientationDeg,1719886366225,90687931399492,313.0,0.0,-56.0
UncalMag,1719886366228,90687934374856,110.475006,-27.487501,-88.762505,88.96693,-10.766889,-53.444653
UncalGyro,1719886366235,90687941384856,0.00972053,0.022636853,0.00585895,0.0016109688,0.0004827658,0.00095539034
UncalAccel,1719886366235,90687941384856,0.033499517,8.257631,5.569295,0.0,0.0,0.0
OrientationDeg,1719886366235,90687941384856,313.0,0.0,-56.0
UncalMag,1719886366238,90687944374856,110.2125,-27.50625,-89.193756,88.96693,-10.766889,-53.444653
UncalGyro,1719886366245,90687951535065,0.022503695,0.014114743,0.011185268,0.0016109688,0.0004827658,0.00095539034
UncalAccel,1719886366245,90687951535065,-0.038285162,8.276773,5.6554365,0.0,0.0,0.0
OrientationDeg,1719886366245,90687951535065,313.0,0.0,-56.0
UncalMag,1719886366248,90687954374856,110.287506,-27.50625,-89.4,88.96693,-10.766889,-53.444653
UncalGyro,1719886366255,90687961537252,0.021438431,-0.0070573715,0.016511586,0.0016109688,0.0004827658,0.00095539034
UncalAccel,1719886366255,90687961537252,-0.07178468,8.300702,5.564509,0.0,0.0,0.0
OrientationDeg,1719886366255,90687961537252,313.0,0.0,-56.0
UncalMag,1719886366258,90687964374856,110.325005,-27.4125,-89.34375,88.96693,-10.766889,-53.444653
UncalGyro,1719886366265,90687971476940,0.010785795,-0.015579481,0.023968432,0.0016109688,0.0004827658,0.00095539034
UncalAccel,1719886366265,90687971476940,-0.043070808,8.300702,5.487939,0.0,0.0,0.0
OrientationDeg,1719886366265,90687971476940,313.0,0.0,-56.0
UncalMag,1719886366268,90687974374856,110.3625,-27.375002,-89.34375,88.96693,-10.766889,-53.444653
UncalAccel,1719886366275,90687981472773,0.0526421,8.271988,5.4113684,0.0,0.0,0.0
UncalGyro,1719886366275,90687981472773,-0.0041278964,-0.011318427,0.02609896,0.0016109688,0.0004827658,0.00095539034
OrientationDeg,1719886366275,90687981472773,313.0,0.0,-56.0
UncalMag,1719886366278,90687984374856,110.49375,-27.525002,-89.4,88.96693,-10.766889,-53.444653
UncalGyro,1719886366285,90687991496367,-0.019041587,-0.00066578976,0.021837905,0.0016109688,0.0004827658,0.00095539034
UncalAccel,1719886366285,90687991496367,0.15792629,8.248059,5.3587265,0.0,0.0,0.0
UncalMag,1719886366288,90687994374856,110.68125,-27.562502,-89.512505,88.96693,-10.766889,-53.444653
OrientationDeg,1719886366285,90687991496367,313.0,0.0,-56.0
UncalGyro,1719886366295,90688001495013,-0.030759487,0.011984216,0.007989477,0.0016109688,0.0004827658,0.00095539034
UncalAccel,1719886366295,90688001495013,0.22492532,8.2145605,5.339584,0.0,0.0,0.0
OrientationDeg,1719886366295,90688001495013,313.0,0.0,-56.0
UncalMag,1719886366298,90688004374856,110.30625,-27.581251,-89.512505,88.96693,-10.766889,-53.444653
UncalGyro,1719886366305,90688011321783,-0.039281595,0.02476738,-0.009054741,0.0016109688,0.0004827658,0.00095539034
UncalAccel,1719886366305,90688011321783,0.20578274,8.2049885,5.38744,0.0,0.0,0.0
OrientationDeg,1719886366305,90688011321783,313.0,0.0,-56.0
UncalMag,1719886366308,90688014374856,110.11875,-27.562502,-89.325005,88.96693,-10.766889,-53.444653
UncalGyro,1719886366315,90688021303294,-0.044607915,0.030093698,-0.018642114,0.0016109688,0.0004827658,0.00095539034
UncalAccel,1719886366315,90688021303294,0.1052842,8.190632,5.444868,0.0,0.0,0.0
UncalMag,1719886366318,90688024374856,110.231255,-27.487501,-89.100006,88.96693,-10.766889,-53.444653
UncalGyro,1719886366325,90688031302148,-0.049934234,0.022636853,-0.022903169,0.0016109688,0.0004827658,0.00095539034
UncalAccel,1719886366325,90688031302148,-0.009571291,8.161918,5.5022955,0.0,0.0,0.0
OrientationDeg,1719886366315,90688021303294,313.0,0.0,-56.0
OrientationDeg,1719886366325,90688031302148,313.0,0.0,-56.0
UncalMag,1719886366328,90688034374856,110.2125,-27.2625,-89.08125,88.96693,-10.766889,-53.444653
UncalGyro,1719886366335,90688041285377,-0.05419529,0.005592634,-0.020772642,0.0016109688,0.0004827658,0.00095539034
UncalAccel,1719886366335,90688041285377,-0.06699903,8.152347,5.511867,0.0,0.0,0.0
OrientationDeg,1719886366335,90688041285377,313.0,0.0,-56.0
UncalMag,1719886366338,90688044374856,110.193756,-27.375002,-89.11875,88.96693,-10.766889,-53.444653
UncalGyro,1719886366345,90688051398867,-0.05526055,-0.0017310535,-0.013315796,0.0016109688,0.0004827658,0.00095539034
UncalAccel,1719886366345,90688051398867,-0.033499517,8.166703,5.511867,0.0,0.0,0.0
OrientationDeg,1719886366345,90688051398867,313.0,0.0,-56.0
UncalMag,1719886366348,90688054374856,110.08125,-27.337502,-89.043755,88.96693,-10.766889,-53.444653
UncalGyro,1719886366355,90688061395273,-0.05526055,0.003462107,-0.0037284228,0.0016109688,0.0004827658,0.00095539034
UncalAccel,1719886366355,90688061395273,0.019142581,8.195417,5.5597234,0.0,0.0,0.0
OrientationDeg,1719886366355,90688061395273,313.0,0.0,-56.0
UncalMag,1719886366358,90688064374856,109.9875,-27.375002,-89.2125,88.96693,-10.766889,-53.444653
UncalGyro,1719886366365,90688071379440,-0.04886897,0.003462107,0.007989477,0.0016109688,0.0004827658,0.00095539034
UncalAccel,1719886366365,90688071379440,0.02871387,8.185846,5.6075797,0.0,0.0,0.0
OrientationDeg,1719886366365,90688071379440,313.0,0.0,-56.0
UncalMag,1719886366368,90688074374856,109.762505,-27.243752,-89.025,88.96693,-10.766889,-53.444653
UncalGyro,1719886366375,90688081374648,-0.03502054,-0.010253162,0.017576851,0.0016109688,0.0004827658,0.00095539034
UncalAccel,1719886366375,90688081374648,0.038285162,8.190632,5.6267223,0.0,0.0,0.0
OrientationDeg,1719886366375,90688081374648,313.0,0.0,-56.0
UncalMag,1719886366378,90688084374856,109.78126,-27.375002,-88.9875,88.96693,-10.766889,-53.444653
UncalGyro,1719886366385,90688091243763,-0.020106852,-0.025166854,0.02929475,0.0016109688,0.0004827658,0.00095539034
UncalAccel,1719886366385,90688091243763,0.019142581,8.209774,5.602794,0.0,0.0,0.0
OrientationDeg,1719886366385,90688091243763,313.0,0.0,-56.0
UncalMag,1719886366388,90688094374856,109.8375,-27.35625,-88.912506,88.96693,-10.766889,-53.444653
UncalGyro,1719886366395,90688101226315,-0.008388951,-0.021971062,0.035686333,0.0016109688,0.0004827658,0.00095539034
UncalAccel,1719886366395,90688101226315,0.08135597,8.200203,5.5501523,0.0,0.0,0.0
OrientationDeg,1719886366395,90688101226315,313.0,0.0,-56.0
UncalMag,1719886366398,90688104374856,109.8,-27.487501,-88.74375,88.96693,-10.766889,-53.444653
UncalGyro,1719886366405,90688111224075,0.0022636852,-0.005992108,0.027164223,0.0016109688,0.0004827658,0.00095539034
UncalAccel,1719886366405,90688111224075,0.14356937,8.195417,5.5166526,0.0,0.0,0.0
OrientationDeg,1719886366405,90688111224075,313.0,0.0,-56.0
UncalMag,1719886366408,90688114374856,109.74375,-27.656252,-88.762505,88.96693,-10.766889,-53.444653
UncalGyro,1719886366415,90688121208242,0.0075900033,0.0109189525,0.010120004,0.0016109688,0.0004827658,0.00095539034
UncalAccel,1719886366415,90688121208242,0.18185452,8.166703,5.4352965,0.0,0.0,0.0
OrientationDeg,1719886366415,90688121208242,313.0,0.0,-56.0
UncalMag,1719886366418,90688124374856,109.762505,-27.45,-88.818756,88.96693,-10.766889,-53.444653
UncalGyro,1719886366425,90688131320846,0.008655267,0.022636853,-0.007989477,0.0016109688,0.0004827658,0.00095539034
UncalAccel,1719886366425,90688131320846,0.1052842,8.200203,5.5501523,0.0,0.0,0.0
OrientationDeg,1719886366425,90688131320846,313.0,0.0,-56.0
UncalMag,1719886366428,90688134374856,109.668755,-27.393751,-88.8375,88.96693,-10.766889,-53.444653
UncalGyro,1719886366435,90688141317981,0.0075900033,0.0045273704,-0.018642114,0.0016109688,0.0004827658,0.00095539034
UncalAccel,1719886366435,90688141317981,-0.019142581,8.257631,5.7320065,0.0,0.0,0.0
OrientationDeg,1719886366435,90688141317981,313.0,0.0,-56.0
UncalMag,1719886366438,90688144374856,109.68751,-27.281252,-88.6125,88.96693,-10.766889,-53.444653
UncalGyro,1719886366445,90688151301419,0.0054594763,-0.034754228,-0.016511586,0.0016109688,0.0004827658,0.00095539034
UncalAccel,1719886366445,90688151301419,-0.08135597,8.281559,5.6650076,0.0,0.0,0.0
OrientationDeg,1719886366445,90688151301419,313.0,0.0,-56.0
UncalMag,1719886366448,90688154374856,109.65,-27.337502,-88.725006,88.96693,-10.766889,-53.444653
UncalGyro,1719886366455,90688161297148,0.003328949,-0.04753739,-0.009054741,0.0016109688,0.0004827658,0.00095539034
UncalAccel,1719886366455,90688161297148,-0.02871387,8.252846,5.5070815,0.0,0.0,0.0
OrientationDeg,1719886366455,90688161297148,313.0,0.0,-56.0
UncalMag,1719886366458,90688164374856,109.59376,-27.31875,-88.725006,88.96693,-10.766889,-53.444653
UncalGyro,1719886366465,90688171281992,0.0022636852,-0.031558435,-0.0005326318,0.0016109688,0.0004827658,0.00095539034
UncalAccel,1719886366465,90688171281992,0.019142581,8.224132,5.4017973,0.0,0.0,0.0
OrientationDeg,1719886366465,90688171281992,313.0,0.0,-56.0
UncalMag,1719886366468,90688174374856,109.40626,-27.31875,-88.93125,88.96693,-10.766889,-53.444653
UncalGyro,1719886366475,90688181276627,0.003328949,-0.010253162,0.007989477,0.0016109688,0.0004827658,0.00095539034
UncalAccel,1719886366475,90688181276627,0.09571291,8.166703,5.3539405,0.0,0.0,0.0
OrientationDeg,1719886366475,90688181276627,313.0,0.0,-56.0
UncalMag,1719886366478,90688184374856,109.51875,-27.35625,-89.08125,88.96693,-10.766889,-53.444653
UncalGyro,1719886366485,90688191146263,0.0022636852,0.0109189525,0.007989477,0.0016109688,0.0004827658,0.00095539034
UncalAccel,1719886366485,90688191146263,0.15792629,8.161918,5.406583,0.0,0.0,0.0
OrientationDeg,1719886366485,90688191146263,313.0,0.0,-56.0
UncalMag,1719886366488,90688194374856,109.70625,-27.31875,-88.96875,88.96693,-10.766889,-53.444653
UncalGyro,1719886366495,90688201128398,-0.0019973693,0.02157159,0.0037284228,0.0016109688,0.0004827658,0.00095539034
UncalAccel,1719886366495,90688201128398,0.148355,8.147561,5.4257255,0.0,0.0,0.0
OrientationDeg,1719886366495,90688201128398,313.0,0.0,-56.0
UncalMag,1719886366498,90688204374856,109.8375,-27.45,-88.8,88.96693,-10.766889,-53.444653
UncalGyro,1719886366505,90688211126627,-0.006258424,0.022636853,0.0015978955,0.0016109688,0.0004827658,0.00095539034
UncalAccel,1719886366505,90688211126627,0.1052842,8.142776,5.4017973,0.0,0.0,0.0
OrientationDeg,1719886366505,90688211126627,313.0,0.0,-56.0
UncalMag,1719886366508,90688214374856,109.912506,-27.487501,-88.725006,88.96693,-10.766889,-53.444653
UncalGyro,1719886366515,90688221110377,-0.015845796,0.020506324,-0.0015978955,0.0016109688,0.0004827658,0.00095539034
UncalAccel,1719886366515,90688221110377,0.11006984,8.114061,5.373083,0.0,0.0,0.0
OrientationDeg,1719886366515,90688221110377,313.0,0.0,-56.0
UncalMag,1719886366518,90688224374856,109.856255,-27.581251,-88.856255,88.96693,-10.766889,-53.444653
UncalGyro,1719886366525,90688231107044,-0.02862896,0.01944106,-0.011185268,0.0016109688,0.0004827658,0.00095539034
UncalAccel,1719886366525,90688231107044,0.09571291,8.109276,5.42094,0.0,0.0,0.0
OrientationDeg,1719886366525,90688231107044,313.0,0.0,-56.0
UncalMag,1719886366528,90688234374856,109.8375,-27.750002,-89.025,88.96693,-10.766889,-53.444653
UncalGyro,1719886366535,90688241092096,-0.03715107,0.0087884255,-0.022903169,0.0016109688,0.0004827658,0.00095539034
UncalAccel,1719886366535,90688241092096,0.062213387,8.13799,5.487939,0.0,0.0,0.0
OrientationDeg,1719886366535,90688241092096,313.0,0.0,-56.0
UncalMag,1719886366538,90688244374856,110.043755,-27.750002,-89.137505,88.96693,-10.766889,-53.444653
UncalGyro,1719886366545,90688251242669,-0.041412123,-0.0049268445,-0.02929475,0.0016109688,0.0004827658,0.00095539034
UncalAccel,1719886366545,90688251242669,0.023928227,8.190632,5.444868,0.0,0.0,0.0
OrientationDeg,1719886366545,90688251242669,313.0,0.0,-56.0
UncalGyro,1719886366555,90688261244492,-0.041412123,-0.00066578976,-0.025033696,0.0016109688,0.0004827658,0.00095539034
Status,,78,0,1,11,1575420030,18.60,95.703,53.378002,1,1,1,15.0
Status,,78,1,1,12,1575420030,11.50,357.28174,60.962204,1,1,1,7.9
Status,,78,2,1,19,1575420030,14.20,48.538864,8.54283,1,1,1,10.6
Status,,78,3,1,24,1575420030,17.80,181.14714,56.915085,1,1,1,14.199999
Status,,78,4,1,25,1575420030,16.10,313.97256,40.0406,0,1,1,12.5
Status,,78,5,1,29,1575420030,18.60,245.45721,31.950289,1,1,1,15.0
Status,,78,6,1,6,1575420030,0.00,48.32114,28.123379,0,1,1,0.0
Status,,78,7,1,20,1575420030,0.00,127.063965,10.158847,0,1,1,0.0
Status,,78,8,1,28,1575420030,0.00,322.94504,0.689757,0,1,1,0.0
Status,,78,9,1,32,1575420030,0.00,294.42038,12.565235,0,1,1,0.0
Status,,78,10,4,195,1575420030,0.00,49.519737,3.455159,0,1,1,0.0
Status,,78,11,3,12,1601437440,19.10,115.98483,19.711401,0,1,1,15.1
Status,,78,12,3,14,1598062460,0.00,334.8073,38.865047,0,1,1,0.0
Status,,78,13,3,22,1600312450,0.00,28.112902,3.4667494,0,1,1,0.0
Status,,78,14,3,13,1600875010,0.00,78.89567,58.019753,0,1,1,0.0
Status,,78,15,3,5,1602562560,0.00,319.0372,1.5153762,0,1,1,0.0
Status,,78,16,3,24,1603124990,0.00,194.00816,64.97339,0,1,1,0.0
Status,,78,17,3,23,1603687550,0.00,34.155025,51.689964,0,1,1,0.0
Status,,78,18,3,17,1604249980,0.00,204.61021,11.636595,0,1,1,0.0
Status,,78,19,3,4,1605374980,0.00,274.34186,3.2849815,0,1,0,0.0
Status,,78,20,5,43,1561097980,16.20,45.11081,55.960278,0,1,1,11.900001
Status,,78,21,5,34,1561097980,19.80,42.262882,9.485926,1,1,1,15.499999
Status,,78,22,5,28,1561097980,20.00,214.3823,56.95987,0,1,1,15.7
Status,,78,23,5,25,1561097980,20.20,126.41395,25.125381,1,1,1,15.900001
Status,,78,24,5,13,1561097980,16.40,104.45681,20.009537,0,1,1,12.099999
Status,,78,25,5,7,1561097980,17.80,67.017265,14.237117,0,1,1,13.499999
Status,,78,26,5,2,1561097980,0.00,116.18135,24.607334,0,1,1,0.0
Status,,78,27,5,3,1561097980,0.00,97.889725,3.4034932,0,1,1,0.0
Status,,78,28,5,8,1561097980,0.00,94.40773,19.152412,0,1,1,0.0
Status,,78,29,5,10,1561097980,0.00,63.57476,25.499746,0,1,1,0.0
Status,,78,30,5,11,1561097980,0.00,41.356037,32.6104,0,1,1,0.0
Status,,78,31,5,23,1561097980,0.00,93.03159,76.18025,0,1,1,0.0
Status,,78,32,5,27,1561097980,0.00,219.02495,11.439877,0,1,1,0.0
Status,,78,33,5,37,1561097980,0.00,318.76694,43.58602,0,1,1,0.0
Status,,78,34,5,38,1561097980,0.00,80.37311,18.649664,0,1,1,0.0
Status,,78,35,5,40,1561097980,0.00,60.23311,2.8852525,0,1,1,0.0
Status,,78,36,5,60,1561097980,0.00,117.64799,29.23241,0,1,1,0.0
Status,,78,37,6,15,1575420030,19.00,70.25621,47.558083,0,1,1,14.7
Status,,78,38,6,27,1575420030,17.70,49.319534,58.244293,1,1,1,13.400001
Status,,78,39,6,34,1575420030,14.00,34.17076,7.9028745,1,1,1,9.7
Status,,78,40,6,7,1575420030,0.00,181.88225,0.052017633,0,1,1,0.0
Status,,78,41,6,13,1575420030,0.00,157.68127,47.327065,0,1,1,0.0
Status,,78,42,6,19,1575420030,0.00,275.24203,22.055431,0,1,1,0.0
Status,,78,43,6,21,1575420030,0.00,315.67807,43.273113,0,1,1,0.0
Status,,78,44,6,26,1575420030,0.00,194.37674,6.631833,0,1,1,0.0
Status,,78,45,6,30,1575420030,0.00,92.84589,16.700071,0,1,1,0.0
Status,,78,46,1,6,1176450050,18.40,48.32114,28.123379,0,1,1,13.5
Status,,78,47,1,11,1176450050,17.00,95.703,53.378002,1,1,1,12.1
Status,,78,48,1,24,1176450050,0.00,181.14714,56.915085,0,1,1,0.0
Status,,78,49,1,25,1176450050,0.00,313.97256,40.0406,0,1,1,0.0
Status,,78,50,1,28,1176450050,0.00,322.94504,0.689757,0,1,1,0.0
Status,,78,51,1,32,1176450050,0.00,294.42038,12.565235,0,1,1,0.0
Status,,78,52,4,195,1176450050,0.00,49.519737,3.455159,0,1,1,0.0
Status,,78,53,6,13,1176450050,14.40,157.68127,47.327065,0,1,1,9.099999
Status,,78,54,6,15,1176450050,19.70,70.25621,47.558083,0,1,1,14.400001
Status,,78,55,6,19,1176450050,13.90,275.24203,22.055431,0,1,1,8.599999
Status,,78,56,6,21,1176450050,14.00,315.67807,43.273113,0,1,1,8.7
Status,,78,57,6,27,1176450050,19.70,49.319534,58.244293,0,1,1,14.400001
Status,,78,58,6,34,1176450050,22.90,34.17076,7.9028745,1,1,1,17.599998
Status,,78,59,6,26,1176450050,0.00,194.37674,6.631833,0,1,1,0.0
Status,,78,60,6,30,1176450050,0.00,92.84589,16.700071,0,1,1,0.0
Status,,78,61,5,23,1176450050,16.00,93.03159,76.18025,0,1,1,11.5
Status,,78,62,5,25,1176450050,16.30,126.41395,25.125381,0,1,1,11.799999
Status,,78,63,5,28,1176450050,15.70,214.3823,56.95987,0,1,1,11.2
Status,,78,64,5,37,1176450050,14.10,318.76694,43.58602,0,1,1,9.6
Status,,78,65,5,43,1176450050,21.70,45.11081,55.960278,1,1,1,17.2
Status,,78,66,5,27,1176450050,0.00,219.02495,11.439877,0,1,1,0.0
Status,,78,67,5,34,1176450050,0.00,42.262882,9.485926,0,1,1,0.0
Status,,78,68,5,38,1176450050,0.00,80.37311,18.649664,0,1,1,0.0
Status,,78,69,5,40,1176450050,0.00,60.23311,2.8852525,0,1,1,0.0
Status,,78,70,5,25,1575420030,21.10,126.41395,25.125381,1,1,1,14.1
Status,,78,71,5,34,1575420030,13.50,42.262882,9.485926,0,1,1,6.5
Status,,78,72,5,37,1575420030,15.00,318.76694,43.58602,0,1,1,8.0
Status,,78,73,5,23,1575420030,0.00,93.03159,76.18025,0,1,1,0.0
Status,,78,74,5,27,1575420030,0.00,219.02495,11.439877,0,1,1,0.0
Status,,78,75,5,28,1575420030,0.00,214.3823,56.95987,0,1,1,0.0
Status,,78,76,5,38,1575420030,0.00,80.37311,18.649664,0,1,1,0.0
Status,,78,77,5,43,1575420030,0.00,45.11081,55.960278,0,1,1,0.0
UncalGyro,1719886366565,90688271184492,-0.04034686,0.0077231615,-0.015446323,0.0016109688,0.0004827658,0.00095539034
UncalAccel,1719886366555,90688261244492,0.0047856453,8.224132,5.440082,0.0,0.0,0.0
UncalAccel,1719886366565,90688271184492,-0.043070808,8.219346,5.4927244,0.0,0.0,0.0
UncalMag,1719886366548,90688254374856,110.193756,-27.750002,-89.2125,88.96693,-10.766889,-53.444653
UncalMag,1719886366558,90688264374856,110.137505,-27.6375,-89.3625,88.96693,-10.766889,-53.444653
OrientationDeg,1719886366555,90688261244492,313.0,0.0,-56.0
OrientationDeg,1719886366565,90688271184492,313.0,0.0,-56.0
UncalMag,1719886366568,90688274374856,110.006256,-27.581251,-89.418755,88.96693,-10.766889,-53.444653
UncalAccel,1719886366575,90688281180117,-0.0526421,8.190632,5.5740805,0.0,0.0,0.0
UncalGyro,1719886366575,90688281180117,-0.038216334,0.003462107,-0.002663159,0.0016109688,0.0004827658,0.00095539034
UncalMag,1719886366578,90688284374856,109.70625,-27.675001,-89.5875,88.96693,-10.766889,-53.444653
OrientationDeg,1719886366575,90688281180117,313.0,0.0,-56.0
UncalGyro,1719886366585,90688291165013,-0.03715107,-0.0049268445,0.006924214,0.0016109688,0.0004827658,0.00095539034
UncalAccel,1719886366585,90688291165013,-0.009571291,8.181061,5.5597234,0.0,0.0,0.0
UncalMag,1719886366588,90688294374856,109.818756,-27.656252,-89.793755,88.96693,-10.766889,-53.444653
OrientationDeg,1719886366585,90688291165013,313.0,0.0,-56.0
UncalAccel,1719886366595,90688301159596,0.043070808,8.147561,5.5980086,0.0,0.0,0.0
UncalGyro,1719886366595,90688301159596,-0.03502054,-0.005992108,0.011185268,0.0016109688,0.0004827658,0.00095539034
OrientationDeg,1719886366595,90688301159596,313.0,0.0,-55.0
UncalMag,1719886366598,90688304374856,109.8,-27.525002,-89.512505,88.96693,-10.766889,-53.444653
UncalGyro,1719886366605,90688311029283,-0.029694224,-0.0070573715,0.007989477,0.0016109688,0.0004827658,0.00095539034
Raw,1719886367417,28224133000000,18,0.0,-1403893361284962771,0.9514710903167725,53.97844870458357,19.531268959955003,18.049732993935447,7,29,0.0,16399,180785341724490,92,18.6,-448.0845031738281,2.7980000972747803,16,0.0,0.0,1575420030,,,,0,0.0,1,-48.32,15.000000000000002,0.0,0.0,,,C,90687665743076
Raw,1719886367417,28224133000000,18,0.0,-1403893361284962771,0.9514710903167725,53.97844870458357,19.531268959955003,18.049732993935447,7,25,0.0,16399,180771336311171,92,20.2,493.09979248046875,2.630500078201294,16,0.0,0.0,1561097980,,,,0,0.0,5,-55.09,15.899999999999999,-481.94122314453125,12.404274940490723,,,I,90687665743076
Raw,1719886367417,28224133000000,18,0.0,-1403893361284962771,0.9514710903167725,53.97844870458357,19.531268959955003,18.049732993935447,7,27,0.0,23567,180785337510365,122,17.7,64.10042572021484,3.017000198364258,16,0.0,0.0,1575420030,,,,0,0.0,6,-52.05,13.399999999999999,4.591054916381836,12.765899658203125,,,C,90687665743076
Raw,1719886367417,28224133000000,18,0.0,-1403893361284962771,0.9514710903167725,53.97844870458357,19.531268959955003,18.049732993935447,7,13,0.0,81935,180785335963430,34,14.4,-425.9323425292969,8.594000816345215,16,0.0,0.0,1176450050,,,,0,0.0,6,-39.75,9.100000000000001,-14.434122085571289,120.6515121459961,,,Q,90687665743076
Raw,1719886367417,28224133000000,18,0.0,-1403893361284962771,0.9514710903167725,53.97844870458357,19.531268959955003,18.049732993935447,7,21,0.0,81935,180785334396047,34,14.0,-255.52880859375,8.592500686645508,16,0.0,0.0,1176450050,,,,0,0.0,6,-39.75,8.7,-14.434122085571289,120.6515121459961,,,Q,90687665743076
Raw,1719886367417,28224133000000,18,0.0,-1403893361284962771,0.9514710903167725,53.97844870458357,19.531268959955003,18.049732993935447,7,27,0.0,81935,180785337510391,20,19.7,63.630558013916016,2.077000141143799,16,0.0,0.0,1176450050,,,,0,0.0,6,-39.75,14.399999999999999,-14.434122085571289,120.6515121459961,,,Q,90687665743076
Raw,1719886367417,28224133000000,18,0.0,-1403893361284962771,0.9514710903167725,53.97844870458357,19.531268959955003,18.049732993935447,7,43,0.0,16399,180771343333276,14,21.7,334.7038879394531,1.125999927520752,16,0.0,0.0,1176450050,,,,0,0.0,5,-39.75,17.2,-503.6468200683594,132.33740234375,,,Q,90687665743076
Raw,1719886367417,28224133000000,18,0.0,-1403893361284962771,0.9514710903167725,53.97844870458357,19.531268959955003,18.049732993935447,7,25,0.0,16399,180771336311270,20,21.1,493.1080017089844,2.115499973297119,16,0.0,0.0,1575420030,,,,0,0.0,5,-52.05,14.100000000000001,-478.3095397949219,125.16171264648438,,,P,90687665743076
Agc,1719886367417,28224133000000,18,0.0,-1403893361284962771,0.9514710903167725,53.97844870458357,19.531268959955003,18.049732993935447,7,-48.32,1575420000,1
Agc,1719886367417,28224133000000,18,0.0,-1403893361284962771,0.9514710903167725,53.97844870458357,19.531268959955003,18.049732993935447,7,-48.32,1575420000,4
Agc,1719886367417,28224133000000,18,0.0,-1403893361284962771,0.9514710903167725,53.97844870458357,19.531268959955003,18.049732993935447,7,-42.88,1602000000,3
Agc,1719886367417,28224133000000,18,0.0,-1403893361284962771,0.9514710903167725,53.97844870458357,19.531268959955003,18.049732993935447,7,-55.09,1561098000,5
Agc,1719886367417,28224133000000,18,0.0,-1403893361284962771,0.9514710903167725,53.97844870458357,19.531268959955003,18.049732993935447,7,-52.05,1575420000,6
Agc,1719886367417,28224133000000,18,0.0,-1403893361284962771,0.9514710903167725,53.97844870458357,19.531268959955003,18.049732993935447,7,-39.75,1176450000,1
Agc,1719886367417,28224133000000,18,0.0,-1403893361284962771,0.9514710903167725,53.97844870458357,19.531268959955003,18.049732993935447,7,-39.75,1176450000,4
Agc,1719886367417,28224133000000,18,0.0,-1403893361284962771,0.9514710903167725,53.97844870458357,19.531268959955003,18.049732993935447,7,-39.75,1176450000,6
Agc,1719886367417,28224133000000,18,0.0,-1403893361284962771,0.9514710903167725,53.97844870458357,19.531268959955003,18.049732993935447,7,-39.75,1176450000,5
Agc,1719886367417,28224133000000,18,0.0,-1403893361284962771,0.9514710903167725,53.97844870458357,19.531268959955003,18.049732993935447,7,-52.05,1575420000,5
UncalAccel,1719886366605,90688311029283,0.08135597,8.166703,5.6123657,0.0,0.0,0.0
Fix,GPS,32.0477307100,34.8676815800,68.259521484375,0.0,5.209278,,1719886368000,0.6725153,,90688247744637,3.7567694,0,,,
OrientationDeg,1719886366605,90688311029283,313.0,0.0,-55.0
UncalMag,1719886366608,90688314374856,109.74375,-27.337502,-89.418755,88.96693,-10.766889,-53.444653
UncalGyro,1719886366615,90688321011367,-0.02223738,-0.008122635,-0.0015978955,0.0016109688,0.0004827658,0.00095539034
UncalAccel,1719886366615,90688321011367,0.09571291,8.209774,5.564509,0.0,0.0,0.0
Fix,FLP,32.0477308000,34.8676816000,76.80000305175781,0.024974264,5.56,,1719886366541,0.6725153,,90688247744637,1.4032571,0,,,
OrientationDeg,1719886366615,90688321011367,313.0,0.0,-55.0
UncalMag,1719886366618,90688324374856,109.68751,-27.187502,-89.4375,88.96693,-10.766889,-53.444653
UncalGyro,1719886366625,90688331125950,-0.017976323,0.0023968432,-0.010120004,0.0016109688,0.0004827658,0.00095539034
UncalAccel,1719886366625,90688331125950,0.07178468,8.219346,5.5501523,0.0,0.0,0.0
OrientationDeg,1719886366625,90688331125950,313.0,0.0,-55.0
UncalMag,1719886366628,90688334374856,109.68751,-27.2625,-89.25,88.96693,-10.766889,-53.444653
UncalGyro,1719886366635,90688341121419,-0.0126500055,0.006657898,-0.018642114,0.0016109688,0.0004827658,0.00095539034
UncalAccel,1719886366635,90688341121419,0.076570325,8.2145605,5.5740805,0.0,0.0,0.0
OrientationDeg,1719886366635,90688341121419,313.0,0.0,-55.0
UncalMag,1719886366638,90688344374856,109.51875,-27.35625,-89.3625,88.96693,-10.766889,-53.444653
UncalGyro,1719886366645,90688351106523,-0.0073236874,-0.0038615807,-0.017576851,0.0016109688,0.0004827658,0.00095539034
UncalAccel,1719886366645,90688351106523,0.0526421,8.161918,5.602794,0.0,0.0,0.0
UncalMag,1719886366648,90688354374856,109.55625,-27.393751,-89.25,88.96693,-10.766889,-53.444653
OrientationDeg,1719886366645,90688351106523,313.0,0.0,-55.0
UncalAccel,1719886366655,90688361100950,0.06699903,8.157132,5.578866,0.0,0.0,0.0
UncalGyro,1719886366655,90688361100950,-0.0041278964,-0.014514217,-0.012250531,0.0016109688,0.0004827658,0.00095539034
OrientationDeg,1719886366655,90688361100950,313.0,0.0,-55.0
UncalMag,1719886366658,90688364374856,109.59376,-27.16875,-89.0625,88.96693,-10.766889,-53.444653
UncalGyro,1719886366665,90688371087148,-0.006258424,-0.015579481,-0.006924214,0.0016109688,0.0004827658,0.00095539034
UncalAccel,1719886366665,90688371087148,0.09092726,8.147561,5.521438,0.0,0.0,0.0
OrientationDeg,1719886366665,90688371087148,313.0,0.0,-55.0
UncalMag,1719886366668,90688374374856,109.350006,-27.281252,-88.8375,88.96693,-10.766889,-53.444653
UncalGyro,1719886366675,90688381080690,-0.008388951,-0.01238369,-0.00585895,0.0016109688,0.0004827658,0.00095539034
UncalAccel,1719886366675,90688381080690,0.05742774,8.157132,5.554938,0.0,0.0,0.0
OrientationDeg,1719886366675,90688381080690,313.0,0.0,-55.0
UncalMag,1719886366678,90688384374856,109.59376,-27.187502,-88.9875,88.96693,-10.766889,-53.444653
UncalGyro,1719886366684,90688390951367,-0.0105194785,-0.010253162,-0.00585895,0.0016109688,0.0004827658,0.00095539034
UncalAccel,1719886366684,90688390951367,-0.023928227,8.190632,5.6123657,0.0,0.0,0.0
OrientationDeg,1719886366684,90688390951367,313.0,0.0,-55.0
UncalMag,1719886366688,90688394374856,109.70625,-27.150002,-89.231255,88.96693,-10.766889,-53.444653
UncalGyro,1719886366694,90688400932669,-0.0105194785,-0.005992108,-0.0037284228,0.0016109688,0.0004827658,0.00095539034
UncalAccel,1719886366694,90688400932669,-0.023928227,8.17149,5.578866,0.0,0.0,0.0
OrientationDeg,1719886366694,90688400932669,313.0,0.0,-55.0
UncalMag,1719886366698,90688404374856,109.70625,-27.187502,-89.2125,88.96693,-10.766889,-53.444653
UncalGyro,1719886366704,90688410931731,-0.0073236874,0.00039947388,-0.00585895,0.0016109688,0.0004827658,0.00095539034
UncalAccel,1719886366704,90688410931731,0.0047856453,8.181061,5.569295,0.0,0.0,0.0
OrientationDeg,1719886366704,90688410931731,313.0,0.0,-55.0
UncalMag,1719886366708,90688414374856,109.55625,-27.187502,-89.45625,88.96693,-10.766889,-53.444653
UncalGyro,1719886366714,90688420914804,-0.0019973693,-0.00066578976,-0.011185268,0.0016109688,0.0004827658,0.00095539034
UncalAccel,1719886366714,90688420914804,-0.033499517,8.200203,5.602794,0.0,0.0,0.0
OrientationDeg,1719886366714,90688420914804,313.0,0.0,-55.0
UncalMag,1719886366718,90688424374856,109.68751,-27.000002,-89.25,88.96693,-10.766889,-53.444653
UncalGyro,1719886366725,90688431067304,-0.0009321057,-0.019840535,-0.016511586,0.0016109688,0.0004827658,0.00095539034
UncalAccel,1719886366725,90688431067304,0.019142581,8.190632,5.4927244,0.0,0.0,0.0
OrientationDeg,1719886366725,90688431067304,313.0,0.0,-55.0
UncalMag,1719886366728,90688434374856,109.55625,-26.85,-89.325005,88.96693,-10.766889,-53.444653
UncalGyro,1719886366735,90688441067513,-0.0051931604,-0.01238369,-0.028229486,0.0016109688,0.0004827658,0.00095539034
UncalAccel,1719886366735,90688441067513,0.09571291,8.190632,5.440082,0.0,0.0,0.0
OrientationDeg,1719886366735,90688441067513,313.0,0.0,-55.0
UncalMag,1719886366738,90688444374856,109.8,-26.94375,-89.287506,88.96693,-10.766889,-53.444653
UncalGyro,1719886366745,90688451009075,-0.0041278964,0.009853689,-0.03888212,0.0016109688,0.0004827658,0.00095539034
UncalAccel,1719886366745,90688451009075,0.08135597,8.142776,5.578866,0.0,0.0,0.0
OrientationDeg,1719886366745,90688451009075,313.0,0.0,-55.0
UncalMag,1719886366748,90688454374856,109.87501,-26.718752,-89.45625,88.96693,-10.766889,-53.444653
UncalGyro,1719886366755,90688461003450,-0.0051931604,-0.013448954,-0.048469495,0.0016109688,0.0004827658,0.00095539034
UncalAccel,1719886366755,90688461003450,-0.009571291,8.133204,5.554938,0.0,0.0,0.0
OrientationDeg,1719886366755,90688461003450,313.0,0.0,-55.0
UncalMag,1719886366759,90688464374856,109.68751,-26.718752,-89.53125,88.96693,-10.766889,-53.444653
UncalGyro,1719886366764,90688470989648,-0.015845796,-0.051798444,-0.054861076,0.0016109688,0.0004827658,0.00095539034
UncalAccel,1719886366764,90688470989648,-0.02871387,8.157132,5.3922257,0.0,0.0,0.0
OrientationDeg,1719886366764,90688470989648,313.0,0.0,-55.0
UncalMag,1719886366768,90688474374856,109.762505,-26.962502,-89.26875,88.96693,-10.766889,-53.444653
UncalGyro,1719886366774,90688480983138,-0.026498433,-0.054994237,-0.06764424,0.0016109688,0.0004827658,0.00095539034
UncalAccel,1719886366774,90688480983138,0.033499517,8.133204,5.3587265,0.0,0.0,0.0
OrientationDeg,1719886366774,90688480983138,313.0,0.0,-55.0
UncalMag,1719886366778,90688484374856,109.59376,-27.093752,-89.231255,88.96693,-10.766889,-53.444653
UncalGyro,1719886366785,90688491008971,-0.02543317,-0.030493172,-0.09427583,0.0016109688,0.0004827658,0.00095539034
UncalAccel,1719886366785,90688491008971,0.033499517,8.051848,5.4783673,0.0,0.0,0.0
OrientationDeg,1719886366785,90688491008971,313.0,0.0,-55.0
UncalMag,1719886366788,90688494374856,109.725006,-27.018751,-88.912506,88.96693,-10.766889,-53.444653
UncalGyro,1719886366795,90688501005742,-0.0051931604,-0.015579481,-0.1346227,0.0016109688,0.0004827658,0.00095539034
UncalAccel,1719886366795,90688501005742,-0.023928227,8.133204,5.6075797,0.0,0.0,0.0
OrientationDeg,1719886366795,90688501005742,314.0,0.0,-55.0
UncalMag,1719886366798,90688504374856,109.65,-27.0375,-88.9875,88.96693,-10.766889,-53.444653
UncalGyro,1719886366804,90688510834492,0.013981585,-0.023036325,-0.14847112,0.0016109688,0.0004827658,0.00095539034
UncalAccel,1719886366804,90688510834492,-0.22013968,8.219346,5.6889358,0.0,0.0,0.0
OrientationDeg,1719886366804,90688510834492,314.0,0.0,-55.0
UncalMag,1719886366808,90688514374856,109.68751,-27.150002,-89.025,88.96693,-10.766889,-53.444653
UncalGyro,1719886366814,90688520814492,0.021438431,-0.04753739,-0.12942953,0.0016109688,0.0004827658,0.00095539034
UncalAccel,1719886366814,90688520814492,-0.2536392,8.176275,5.6793647,0.0,0.0,0.0
OrientationDeg,1719886366814,90688520814492,314.0,0.0,-55.0
UncalMag,1719886366818,90688524374856,109.6125,-27.093752,-89.15625,88.96693,-10.766889,-53.444653
UncalGyro,1719886366824,90688530892304,0.028895276,-0.054994237,-0.11132005,0.0016109688,0.0004827658,0.00095539034
UncalAccel,1719886366824,90688530892304,-0.15792629,8.200203,5.6937213,0.0,0.0,0.0
UncalMag,1719886366828,90688534374856,109.762505,-27.281252,-88.89375,88.96693,-10.766889,-53.444653
OrientationDeg,1719886366824,90688530892304,314.0,0.0,-55.0
UncalGyro,1719886366834,90688540882200,0.037417386,-0.054994237,-0.09640636,0.0016109688,0.0004827658,0.00095539034
UncalAccel,1719886366834,90688540882200,-0.02871387,8.248059,5.669793,0.0,0.0,0.0
OrientationDeg,1719886366834,90688540882200,314.0,0.0,-55.0
UncalMag,1719886366838,90688544374856,109.68751,-27.300001,-88.762505,88.96693,-10.766889,-53.444653
UncalGyro,1719886366844,90688550950481,0.03528686,-0.06351634,-0.07616635,0.0016109688,0.0004827658,0.00095539034
UncalAccel,1719886366844,90688550950481,0.019142581,8.29113,5.6171513,0.0,0.0,0.0
UncalMag,1719886366848,90688554374856,109.6125,-27.243752,-88.78125,88.96693,-10.766889,-53.444653
OrientationDeg,1719886366844,90688550950481,314.0,0.0,-55.0
UncalGyro,1719886366854,90688560948190,0.021438431,-0.092278466,-0.065513715,0.0016109688,0.0004827658,0.00095539034
UncalAccel,1719886366854,90688560948190,0.062213387,8.286345,5.511867,0.0,0.0,0.0
OrientationDeg,1719886366854,90688560948190,314.0,0.0,-55.0
UncalMag,1719886366858,90688564374856,109.818756,-27.187502,-88.74375,88.96693,-10.766889,-53.444653
UncalGyro,1719886366864,90688570892200,0.00013315796,-0.11038794,-0.054861076,0.0016109688,0.0004827658,0.00095539034
UncalAccel,1719886366864,90688570892200,0.15792629,8.190632,5.377869,0.0,0.0,0.0
OrientationDeg,1719886366864,90688570892200,314.0,0.0,-55.0
UncalMag,1719886366868,90688574374856,109.725006,-27.281252,-88.89375,88.96693,-10.766889,-53.444653
UncalGyro,1719886366874,90688580884596,-0.017976323,-0.09653952,-0.05273055,0.0016109688,0.0004827658,0.00095539034
UncalAccel,1719886366874,90688580884596,0.22013968,8.128419,5.3682976,0.0,0.0,0.0
OrientationDeg,1719886366874,90688580884596,314.0,0.0,-55.0
UncalMag,1719886366878,90688584374856,109.8,-27.281252,-88.950005,88.96693,-10.766889,-53.444653
UncalGyro,1719886366884,90688590911627,-0.03502054,-0.07523424,-0.05592634,0.0016109688,0.0004827658,0.00095539034
UncalAccel,1719886366884,90688590911627,0.18185452,8.10449,5.38744,0.0,0.0,0.0
OrientationDeg,1719886366884,90688590911627,314.0,0.0,-55.0
UncalMag,1719886366888,90688594374856,109.912506,-27.093752,-88.950005,88.96693,-10.766889,-53.444653
UncalGyro,1719886366894,90688600907461,-0.04886897,-0.06351634,-0.056991603,0.0016109688,0.0004827658,0.00095539034
UncalAccel,1719886366894,90688600907461,0.13399807,8.085348,5.4592247,0.0,0.0,0.0
OrientationDeg,1719886366894,90688600907461,314.0,0.0,-55.0
UncalMag,1719886366898,90688604374856,109.8,-27.150002,-89.100006,88.96693,-10.766889,-53.444653
UncalGyro,1719886366904,90688610892096,-0.059521604,-0.058190025,-0.053795815,0.0016109688,0.0004827658,0.00095539034
UncalAccel,1719886366904,90688610892096,0.10049855,8.118847,5.440082,0.0,0.0,0.0
OrientationDeg,1719886366904,90688610892096,314.0,0.0,-55.0
UncalMag,1719886366908,90688614374856,109.68751,-26.98125,-89.2125,88.96693,-10.766889,-53.444653
UncalGyro,1719886366914,90688620886836,-0.065913185,-0.033688962,-0.04953476,0.0016109688,0.0004827658,0.00095539034
UncalAccel,1719886366914,90688620886836,0.0,8.224132,5.4017973,0.0,0.0,0.0
OrientationDeg,1719886366914,90688620886836,315.0,0.0,-55.0
UncalMag,1719886366918,90688624374856,109.78126,-27.075,-89.231255,88.96693,-10.766889,-53.444653
UncalGyro,1719886366924,90688630833867,-0.06058687,0.037550543,-0.025033696,0.0016109688,0.0004827658,0.00095539034
UncalAccel,1719886366924,90688630833867,-0.43609193,8.635697,5.3922257,0.0,0.0,0.0
UncalMag,1719886366928,90688634374856,109.96876,-26.8875,-89.325005,88.96693,-10.766889,-53.444653
UncalGyro,1719886366934,90688640823815,-0.032890014,0.11744532,0.03888212,0.0016109688,0.0004827658,0.00095539034
UncalAccel,1719886366934,90688640823815,-0.51266223,8.573483,5.669793,0.0,0.0,0.0
OrientationDeg,1719886366924,90688630833867,315.0,0.0,-55.0
OrientationDeg,1719886366934,90688640823815,315.0,0.0,-55.0
UncalMag,1719886366938,90688644374856,109.87501,-26.812502,-89.4,88.96693,-10.766889,-53.444653
UncalGyro,1719886366944,90688650814388,0.003328949,0.11957584,0.097471625,0.0016109688,0.0004827658,0.00095539034
UncalAccel,1719886366944,90688650814388,-0.33559337,8.243274,5.966503,0.0,0.0,0.0
OrientationDeg,1719886366944,90688650814388,315.0,0.0,-55.0
UncalMag,1719886366948,90688654374856,110.08125,-26.6625,-89.193756,88.96693,-10.766889,-53.444653
UncalGyro,1719886366954,90688660804388,0.024634222,0.067377925,0.120907426,0.0016109688,0.0004827658,0.00095539034
UncalAccel,1719886366954,90688660804388,-0.26859435,8.152347,5.8420763,0.0,0.0,0.0
OrientationDeg,1719886366954,90688660804388,315.0,0.0,-55.0
UncalMag,1719886366958,90688664374856,109.9875,-26.98125,-89.100006,88.96693,-10.766889,-53.444653
UncalGyro,1719886366964,90688670794908,0.024634222,0.042876862,0.118776895,0.0016109688,0.0004827658,0.00095539034
UncalAccel,1719886366964,90688670794908,-0.18185452,8.133204,5.6745787,0.0,0.0,0.0
OrientationDeg,1719886366964,90688670794908,315.0,0.0,-55.0
UncalMag,1719886366968,90688674374856,109.725006,-27.187502,-89.2125,88.96693,-10.766889,-53.444653
UncalGyro,1719886366974,90688680784961,0.0043942127,0.026897907,0.107058994,0.0016109688,0.0004827658,0.00095539034
UncalAccel,1719886366974,90688680784961,-0.17228323,8.166703,5.6745787,0.0,0.0,0.0
OrientationDeg,1719886366974,90688680784961,314.0,0.0,-55.0
UncalMag,1719886366978,90688684374856,109.818756,-27.150002,-89.043755,88.96693,-10.766889,-53.444653
UncalGyro,1719886366984,90688690775429,-0.026498433,-0.025166854,0.09108004,0.0016109688,0.0004827658,0.00095539034
UncalAccel,1719886366984,90688690775429,-0.22013968,8.166703,5.8037915,0.0,0.0,0.0
OrientationDeg,1719886366984,90688690775429,314.0,0.0,-55.0
UncalMag,1719886366988,90688694374856,109.8375,-27.187502,-89.137505,88.96693,-10.766889,-53.444653
UncalGyro,1719886366994,90688700765533,-0.059521604,-0.11891005,0.075101085,0.0016109688,0.0004827658,0.00095539034
UncalAccel,1719886366994,90688700765533,-0.23928227,8.152347,5.784649,0.0,0.0,0.0
OrientationDeg,1719886366994,90688700765533,314.0,0.0,-55.0
UncalMag,1719886366998,90688704374856,109.87501,-27.150002,-89.3625,88.96693,-10.766889,-53.444653
UncalGyro,1719886367004,90688710755898,-0.08402267,-0.18389113,0.065513715,0.0016109688,0.0004827658,0.00095539034
UncalAccel,1719886367004,90688710755898,-0.22971097,8.257631,5.511867,0.0,0.0,0.0
OrientationDeg,1719886367004,90688710755898,314.0,0.0,-55.0
UncalMag,1719886367008,90688714374856,109.74375,-27.243752,-89.25,88.96693,-10.766889,-53.444653
UncalGyro,1719886367014,90688720746054,-0.09574057,-0.17110798,0.06444845,0.0016109688,0.0004827658,0.00095539034
UncalAccel,1719886367014,90688720746054,-0.15792629,8.3581295,5.4640107,0.0,0.0,0.0
OrientationDeg,1719886367014,90688720746054,314.0,0.0,-55.0
UncalMag,1719886367018,90688724374856,109.762505,-27.2625,-89.26875,88.96693,-10.766889,-53.444653
UncalGyro,1719886367024,90688730620169,-0.08508793,-0.13382374,0.07190529,0.0016109688,0.0004827658,0.00095539034
UncalAccel,1719886367024,90688730620169,-0.148355,8.4012,5.483153,0.0,0.0,0.0
OrientationDeg,1719886367024,90688730620169,314.0,0.0,-55.0
UncalMag,1719886367028,90688734374856,109.6125,-27.45,-89.49375,88.96693,-10.766889,-53.444653
UncalGyro,1719886367034,90688740598711,-0.053130023,-0.09867004,0.08255793,0.0016109688,0.0004827658,0.00095539034
UncalAccel,1719886367034,90688740598711,-0.12921242,8.391629,5.483153,0.0,0.0,0.0
OrientationDeg,1719886367034,90688740598711,314.0,0.0,-55.0
UncalMag,1719886367038,90688744374856,109.443756,-27.375002,-89.34375,88.96693,-10.766889,-53.444653
UncalGyro,1719886367044,90688750716783,-0.019041587,-0.05392897,0.095341094,0.0016109688,0.0004827658,0.00095539034
UncalAccel,1719886367044,90688750716783,-0.14356937,8.377272,5.4687963,0.0,0.0,0.0
OrientationDeg,1719886367044,90688750716783,314.0,0.0,-55.0
UncalMag,1719886367048,90688754374856,109.68751,-27.243752,-89.4,88.96693,-10.766889,-53.444653
UncalGyro,1719886367054,90688760709440,0.003328949,-0.002796317,0.107058994,0.0016109688,0.0004827658,0.00095539034
UncalAccel,1719886367054,90688760709440,-0.18185452,8.305488,5.5022955,0.0,0.0,0.0
OrientationDeg,1719886367054,90688760709440,314.0,0.0,-55.0
UncalMag,1719886367058,90688764374856,109.668755,-27.2625,-89.381256,88.96693,-10.766889,-53.444653
UncalGyro,1719886367064,90688770697356,0.015046849,0.032224227,0.120907426,0.0016109688,0.0004827658,0.00095539034
UncalAccel,1719886367064,90688770697356,-0.2009971,8.305488,5.5501523,0.0,0.0,0.0
OrientationDeg,1719886367064,90688770697356,314.0,0.0,-55.0
UncalMag,1719886367068,90688774374856,109.6125,-27.093752,-89.2125,88.96693,-10.766889,-53.444653
UncalGyro,1719886367074,90688780689492,0.019307904,0.053529497,0.13901691,0.0016109688,0.0004827658,0.00095539034
UncalAccel,1719886367074,90688780689492,-0.22013968,8.271988,5.602794,0.0,0.0,0.0
OrientationDeg,1719886367074,90688780689492,314.0,0.0,-55.0
UncalMag,1719886367078,90688784374856,109.668755,-27.075,-89.006256,88.96693,-10.766889,-53.444653
UncalGyro,1719886367084,90688790561575,0.022503695,0.058855817,0.15286534,0.0016109688,0.0004827658,0.00095539034
UncalAccel,1719886367084,90688790561575,-0.21535404,8.286345,5.6985073,0.0,0.0,0.0
OrientationDeg,1719886367084,90688790561575,314.0,0.0,-55.0
UncalMag,1719886367088,90688794374856,109.631256,-26.906252,-89.08125,88.96693,-10.766889,-53.444653
UncalGyro,1719886367094,90688800541731,0.028895276,0.031158961,0.16884428,0.0016109688,0.0004827658,0.00095539034
UncalAccel,1719886367094,90688800541731,-0.20578274,8.367701,5.712864,0.0,0.0,0.0
OrientationDeg,1719886367094,90688800541731,314.0,0.0,-55.0
UncalMag,1719886367098,90688804374856,109.8,-26.812502,-89.15625,88.96693,-10.766889,-53.444653
UncalGyro,1719886367104,90688810541940,0.020373167,-0.014514217,0.19334535,0.0016109688,0.0004827658,0.00095539034
UncalAccel,1719886367104,90688810541940,-0.18185452,8.377272,5.6123657,0.0,0.0,0.0
OrientationDeg,1719886367104,90688810541940,314.0,0.0,-55.0
UncalMag,1719886367108,90688814374856,109.8,-26.737501,-89.137505,88.96693,-10.766889,-53.444653
UncalGyro,1719886367114,90688820524127,-0.0041278964,-0.0560595,0.22317274,0.0016109688,0.0004827658,0.00095539034
UncalAccel,1719886367114,90688820524127,-0.12921242,8.300702,5.521438,0.0,0.0,0.0
OrientationDeg,1719886367114,90688820524127,314.0,0.0,-55.0
UncalMag,1719886367118,90688824374856,109.856255,-26.718752,-89.15625,88.96693,-10.766889,-53.444653
UncalGyro,1719886367124,90688830522356,-0.032890014,-0.078430034,0.23915169,0.0016109688,0.0004827658,0.00095539034
UncalAccel,1719886367124,90688830522356,-0.047856454,8.248059,5.49751,0.0,0.0,0.0
OrientationDeg,1719886367124,90688830522356,313.0,-1.0,-55.0
UncalMag,1719886367128,90688834374856,109.59376,-26.85,-89.193756,88.96693,-10.766889,-53.444653
UncalGyro,1719886367134,90688840506158,-0.05206476,-0.092278466,0.24554327,0.0016109688,0.0004827658,0.00095539034
UncalAccel,1719886367134,90688840506158,0.0526421,8.157132,5.5262237,0.0,0.0,0.0
OrientationDeg,1719886367134,90688840506158,313.0,-1.0,-55.0
UncalMag,1719886367138,90688844374856,109.40626,-26.868752,-89.2125,88.96693,-10.766889,-53.444653
UncalGyro,1719886367144,90688850619075,-0.059521604,-0.114649,0.24021696,0.0016109688,0.0004827658,0.00095539034
UncalAccel,1719886367144,90688850619075,0.076570325,7.999206,5.751149,0.0,0.0,0.0
OrientationDeg,1719886367144,90688850619075,313.0,-1.0,-55.0
UncalMag,1719886367148,90688854374856,109.443756,-27.243752,-89.287506,88.96693,-10.766889,-53.444653
UncalGyro,1719886367154,90688860615950,-0.050999496,-0.15832481,0.22210747,0.0016109688,0.0004827658,0.00095539034
UncalAccel,1719886367154,90688860615950,0.13399807,7.874779,5.8468623,0.0,0.0,0.0
UncalMag,1719886367158,90688864374856,109.36875,-27.281252,-89.25,88.96693,-10.766889,-53.444653
OrientationDeg,1719886367154,90688860615950,313.0,-1.0,-55.0
UncalGyro,1719886367164,90688870638502,-0.03395528,-0.18282588,0.20506325,0.0016109688,0.0004827658,0.00095539034
