# 
# Header Description:
# 
# Version: v3.0.6.4 Platform: 14 Manufacturer: OnePlus Model: CPH2581
# 
# Raw,utcTimeMillis,TimeNanos,LeapSecond,TimeUncertaintyNanos,FullBiasNanos,BiasNanos,BiasUncertaintyNanos,DriftNanosPerSecond,DriftUncertaintyNanosPerSecond,HardwareClockDiscontinuityCount,Svid,TimeOffsetNanos,State,ReceivedSvTimeNanos,ReceivedSvTimeUncertaintyNanos,Cn0DbHz,PseudorangeRateMetersPerSecond,PseudorangeRateUncertaintyMetersPerSecond,AccumulatedDeltaRangeState,AccumulatedDeltaRangeMeters,AccumulatedDeltaRangeUncertaintyMeters,CarrierFrequencyHz,CarrierCycles,CarrierPhase,CarrierPhaseUncertainty,MultipathIndicator,SnrInDb,ConstellationType,AgcDb,BasebandCn0DbHz,FullInterSignalBiasNanos,FullInterSignalBiasUncertaintyNanos,SatelliteInterSignalBiasNanos,SatelliteInterSignalBiasUncertaintyNanos,CodeType,ChipsetElapsedRealtimeNanos
# 
# UncalAccel,utcTimeMillis,elapsedRealtimeNanos,UncalAccelXMps2,UncalAccelYMps2,UncalAccelZMps2,BiasXMps2,BiasYMps2,BiasZMps2
# 
# Accel,utcTimeMillis,elapsedRealtimeNanos,AccelXMps2,AccelYMps2,AccelZMps2
# 
# UncalGyro,utcTimeMillis,elapsedRealtimeNanos,UncalGyroXRadPerSec,UncalGyroYRadPerSec,UncalGyroZRadPerSec,DriftXRadPerSec,DriftYRadPerSec,DriftZRadPerSec
# 
# Gyro,utcTimeMillis,elapsedRealtimeNanos,GyroXRadPerSec,GyroYRadPerSec,GyroZRadPerSec
# 
# UncalMag,utcTimeMillis,elapsedRealtimeNanos,UncalMagXMicroT,UncalMagYMicroT,UncalMagZMicroT,BiasXMicroT,BiasYMicroT,BiasZMicroT
# 
# Mag,utcTimeMillis,elapsedRealtimeNanos,MagXMicroT,MagYMicroT,MagZMicroT
# 
# OrientationDeg,utcTimeMillis,elapsedRealtimeNanos,yawDeg,rollDeg,pitchDeg
# 
# Fix,Provider,LatitudeDegrees,LongitudeDegrees,AltitudeMeters,SpeedMps,AccuracyMeters,BearingDegrees,UnixTimeMillis,SpeedAccuracyMps,BearingAccuracyDegrees,elapsedRealtimeNanos,VerticalAccuracyMeters,MockLocation,NumberOfUsedSignals,VerticalSpeedAccuracyMps,SolutionType
# 
# Nav,Svid,Type,Status,MessageId,Sub-messageId,Data(Bytes)
# 
# Status,UnixTimeMillis,SignalCount,SignalIndex,ConstellationType,Svid,CarrierFrequencyHz,Cn0DbHz,AzimuthDegrees,ElevationDegrees,UsedInFix,HasAlmanacData,HasEphemerisData,BasebandCn0DbHz
# 
# Agc,utcTimeMillis,TimeNanos,LeapSecond,TimeUncertaintyNanos,FullBiasNanos,BiasNanos,BiasUncertaintyNanos,DriftNanosPerSecond,DriftUncertaintyNanosPerSecond,HardwareClockDiscontinuityCount,AgcDb,CarrierFrequencyHz,ConstellationType
# 
UncalAccel,1719891458604,95780310278891,0.57427746,8.923434,4.831707,0.0,0.0,0.0
UncalGyro,1719891458614,95780320254516,0.044874232,-0.054994237,0.023968432,0.0025561561,-0.00061385153,0.0009437421
UncalAccel,1719891458614,95780320254516,0.6029913,8.976076,4.750351,0.0,0.0,0.0
UncalMag,1719891458616,95780322838839,80.5875,-46.425003,-54.300003,85.73942,4.7565236,-45.71802
OrientationDeg,1719891458614,95780320254516,166.0,-7.0,-61.0
UncalGyro,1719891458624,95780330206652,0.04061318,-0.068842664,0.034621067,0.0025561561,-0.00061385153,0.0009437421
UncalAccel,1719891458624,95780330206652,0.6939186,8.9521475,4.6211386,0.0,0.0,0.0
OrientationDeg,1719891458624,95780330206652,163.0,-7.0,-61.0
UncalMag,1719891458626,95780332838839,80.512505,-46.2,-54.318752,85.73942,4.7565236,-45.71802
UncalGyro,1719891458634,95780340236860,0.045939494,-0.07523424,0.045273706,0.0025561561,-0.00061385153,0.0009437421
UncalAccel,1719891458634,95780340236860,0.76570326,8.89472,4.4727836,0.0,0.0,0.0
OrientationDeg,1719891458634,95780340236860,163.0,-8.0,-62.0
UncalMag,1719891458636,95780342838839,80.53125,-46.03125,-54.281254,85.73942,4.7565236,-45.71802
UncalGyro,1719891458644,95780350150037,0.051265813,-0.07203846,0.048469495,0.0025561561,-0.00061385153,0.0009437421
UncalAccel,1719891458644,95780350150037,0.8380861,8.7984085,4.386642,0.0,0.0,0.0
OrientationDeg,1719891458644,95780350150037,164.0,-8.0,-62.0
UncalMag,1719891458646,95780352838839,80.381256,-46.237503,-54.3375,85.73942,4.7565236,-45.71802
UncalGyro,1719891458654,95780360219256,0.04700476,-0.049667917,0.047404233,0.0025561561,-0.00061385153,0.0009437421
UncalAccel,1719891458654,95780360219256,0.87158567,8.740981,4.3244286,0.0,0.0,0.0
OrientationDeg,1719891458654,95780360219256,164.0,-9.0,-62.0
UncalMag,1719891458656,95780362838839,80.606255,-46.03125,-54.3375,85.73942,4.7565236,-45.71802
UncalGyro,1719891458664,95780370210454,0.043808967,-0.008122635,0.03888212,0.0025561561,-0.00061385153,0.0009437421
UncalAccel,1719891458664,95780370210454,0.89072824,8.712267,4.3674994,0.0,0.0,0.0
OrientationDeg,1719891458664,95780370210454,165.0,-9.0,-62.0
UncalMag,1719891458666,95780372838839,80.71875,-45.975002,-54.54375,85.73942,4.7565236,-45.71802
UncalGyro,1719891458674,95780380201600,0.052331075,0.02796317,0.020772642,0.0025561561,-0.00061385153,0.0009437421
UncalAccel,1719891458674,95780380201600,0.9098708,8.688339,4.4392843,0.0,0.0,0.0
OrientationDeg,1719891458674,95780380201600,165.0,-9.0,-62.0
UncalMag,1719891458676,95780382838839,80.3625,-45.9,-54.300003,85.73942,4.7565236,-45.71802
UncalGyro,1719891458684,95780390192850,0.072571084,0.029028434,0.00585895,0.0025561561,-0.00061385153,0.0009437421
UncalAccel,1719891458684,95780390192850,0.9385847,8.688339,4.3818564,0.0,0.0,0.0
OrientationDeg,1719891458684,95780390192850,165.0,-10.0,-62.0
UncalMag,1719891458686,95780392838839,80.3625,-45.7125,-54.24375,85.73942,4.7565236,-45.71802
UncalGyro,1719891458694,95780400183996,0.084288985,0.020506324,-0.006924214,0.0025561561,-0.00061385153,0.0009437421
UncalAccel,1719891458694,95780400183996,0.91465646,8.678768,4.2478585,0.0,0.0,0.0
OrientationDeg,1719891458694,95780400183996,165.0,-10.0,-62.0
UncalMag,1719891458696,95780402838839,80.45625,-46.2,-54.43125,85.73942,4.7565236,-45.71802
UncalGyro,1719891458704,95780410175194,0.07576688,0.018375797,-0.022903169,0.0025561561,-0.00061385153,0.0009437421
UncalAccel,1719891458704,95780410175194,0.8668,8.688339,4.1904306,0.0,0.0,0.0
OrientationDeg,1719891458704,95780410175194,165.0,-10.0,-62.0
UncalMag,1719891458706,95780412838839,80.381256,-46.237503,-54.54375,85.73942,4.7565236,-45.71802
UncalGyro,1719891458714,95780420166339,0.055526868,0.015180007,-0.034621067,0.0025561561,-0.00061385153,0.0009437421
UncalAccel,1719891458714,95780420166339,0.75613195,8.750552,4.1904306,0.0,0.0,0.0
OrientationDeg,1719891458714,95780420166339,165.0,-10.0,-63.0
UncalMag,1719891458716,95780422838839,80.137505,-46.0125,-54.656254,85.73942,4.7565236,-45.71802
UncalGyro,1719891458724,95780430157589,0.023568958,-0.005992108,-0.03781686,0.0025561561,-0.00061385153,0.0009437421
UncalAccel,1719891458724,95780430157589,0.6221339,8.76491,4.2095733,0.0,0.0,0.0
OrientationDeg,1719891458724,95780430157589,164.0,-10.0,-63.0
UncalMag,1719891458726,95780432838839,80.381256,-45.7125,-54.6375,85.73942,4.7565236,-45.71802
UncalGyro,1719891458734,95780440148735,-0.0105194785,-0.04114581,-0.030360013,0.0025561561,-0.00061385153,0.0009437421
UncalAccel,1719891458734,95780440148735,0.57906306,8.76491,4.228716,0.0,0.0,0.0
OrientationDeg,1719891458734,95780440148735,165.0,-10.0,-63.0
UncalMag,1719891458736,95780442838839,80.11875,-45.675003,-54.787502,85.73942,4.7565236,-45.71802
UncalGyro,1719891458744,95780450139985,-0.04034686,-0.07203846,-0.014381059,0.0025561561,-0.00061385153,0.0009437421
UncalAccel,1719891458744,95780450139985,0.63170516,8.779266,4.243073,0.0,0.0,0.0
OrientationDeg,1719891458744,95780450139985,164.0,-9.0,-63.0
UncalMag,1719891458746,95780452838839,80.15625,-45.7125,-54.487503,85.73942,4.7565236,-45.71802
UncalGyro,1719891458754,95780460131131,-0.06165213,-0.08695214,-0.0005326318,0.0025561561,-0.00061385153,0.0009437421
UncalAccel,1719891458754,95780460131131,0.6221339,8.793623,4.3244286,0.0,0.0,0.0
OrientationDeg,1719891458754,95780460131131,164.0,-9.0,-63.0
UncalMag,1719891458756,95780462838839,80.25,-45.73125,-54.54375,85.73942,4.7565236,-45.71802
UncalGyro,1719891458764,95780470122329,-0.06165213,-0.078430034,0.007989477,0.0025561561,-0.00061385153,0.0009437421
UncalAccel,1719891458764,95780470122329,0.65084773,8.803194,4.386642,0.0,0.0,0.0
OrientationDeg,1719891458764,95780470122329,164.0,-9.0,-63.0
UncalMag,1719891458766,95780472838839,80.287506,-45.73125,-54.6375,85.73942,4.7565236,-45.71802
UncalGyro,1719891458774,95780480113475,-0.044607915,-0.06458161,0.013315796,0.0025561561,-0.00061385153,0.0009437421
UncalAccel,1719891458774,95780480113475,0.70348984,8.7984085,4.3674994,0.0,0.0,0.0
OrientationDeg,1719891458774,95780480113475,165.0,-9.0,-63.0
UncalMag,1719891458776,95780482838839,80.418755,-45.412502,-54.61875,85.73942,4.7565236,-45.71802
UncalGyro,1719891458784,95780490104725,-0.021172116,-0.04860265,0.016511586,0.0025561561,-0.00061385153,0.0009437421
UncalAccel,1719891458784,95780490104725,0.76570326,8.788837,4.362714,0.0,0.0,0.0
OrientationDeg,1719891458784,95780490104725,165.0,-9.0,-63.0
UncalMag,1719891458786,95780492838839,80.418755,-45.45,-54.881252,85.73942,4.7565236,-45.71802
UncalGyro,1719891458794,95780500095871,-0.0019973693,-0.025166854,0.017576851,0.0025561561,-0.00061385153,0.0009437421
UncalAccel,1719891458794,95780500095871,0.7902297,8.842078,4.453641,0.0,0.0,0.0
OrientationDeg,1719891458794,95780500095871,164.0,-9.0,-63.0
UncalMag,1719891458796,95780502838839,80.568756,-45.600002,-54.73125,85.73942,4.7565236,-45.71802
UncalGyro,1719891458804,95780510087069,0.00652474,-0.018775271,0.018642114,0.0025561561,-0.00061385153,0.0009437421
UncalAccel,1719891458804,95780510087069,0.7178468,8.899506,4.482355,0.0,0.0,0.0
OrientationDeg,1719891458804,95780510087069,164.0,-9.0,-63.0
UncalMag,1719891458806,95780512838839,80.325005,-45.581253,-54.693752,85.73942,4.7565236,-45.71802
UncalGyro,1719891458814,95780520078214,0.0022636852,-0.034754228,0.022903169,0.0025561561,-0.00061385153,0.0009437421
UncalAccel,1719891458814,95780520078214,0.6556334,8.875577,4.4392843,0.0,0.0,0.0
OrientationDeg,1719891458814,95780520078214,164.0,-9.0,-63.0
UncalMag,1719891458816,95780522838839,80.4375,-45.54375,-54.487503,85.73942,4.7565236,-45.71802
UncalGyro,1719891458824,95780530069464,-0.013715269,-0.049667917,0.02609896,0.0025561561,-0.00061385153,0.0009437421
UncalAccel,1719891458824,95780530069464,0.6795616,8.842078,4.3387856,0.0,0.0,0.0
OrientationDeg,1719891458824,95780530069464,164.0,-9.0,-63.0
UncalMag,1719891458826,95780532838839,80.26875,-45.487503,-54.693752,85.73942,4.7565236,-45.71802
UncalGyro,1719891458834,95780540060610,-0.032890014,-0.04221107,0.030360013,0.0025561561,-0.00061385153,0.0009437421
UncalAccel,1719891458834,95780540060610,0.75613195,8.807981,4.2717867,0.0,0.0,0.0
OrientationDeg,1719891458834,95780540060610,164.0,-9.0,-63.0
UncalMag,1719891458836,95780542838839,80.26875,-45.43125,-54.656254,85.73942,4.7565236,-45.71802
UncalGyro,1719891458844,95780550051808,-0.042477388,-0.019840535,0.030360013,0.0025561561,-0.00061385153,0.0009437421
UncalAccel,1719891458844,95780550051808,0.8380861,8.788837,4.252644,0.0,0.0,0.0
OrientationDeg,1719891458844,95780550051808,164.0,-10.0,-63.0
UncalMag,1719891458846,95780552838839,80.231255,-45.43125,-54.61875,85.73942,4.7565236,-45.71802
UncalAccel,1719891458854,95780560042954,0.8428718,8.807981,4.334,0.0,0.0,0.0
UncalGyro,1719891458854,95780560042954,-0.039281595,0.00039947388,0.03142528,0.0025561561,-0.00061385153,0.0009437421
OrientationDeg,1719891458854,95780560042954,164.0,-10.0,-63.0
UncalMag,1719891458856,95780562838839,80.11875,-45.45,-54.487503,85.73942,4.7565236,-45.71802
UncalGyro,1719891458864,95780570034204,-0.03502054,0.0109189525,0.030360013,0.0025561561,-0.00061385153,0.0009437421
UncalAccel,1719891458864,95780570034204,0.90029955,8.774481,4.4488554,0.0,0.0,0.0
OrientationDeg,1719891458864,95780570034204,164.0,-10.0,-63.0
UncalMag,1719891458866,95780572838839,80.175,-45.581253,-54.093754,85.73942,4.7565236,-45.71802
UncalGyro,1719891458874,95780580025350,-0.036085807,0.00039947388,0.02609896,0.0025561561,-0.00061385153,0.0009437421
UncalAccel,1719891458874,95780580025350,0.8955139,8.73141,4.5876393,0.0,0.0,0.0
UncalMag,1719891458876,95780582838839,80.006256,-45.54375,-54.112503,85.73942,4.7565236,-45.71802
OrientationDeg,1719891458874,95780580025350,164.0,-10.0,-63.0
UncalGyro,1719891458884,95780590016600,-0.03715107,-0.0326237,0.014381059,0.0025561561,-0.00061385153,0.0009437421
UncalAccel,1719891458884,95780590016600,0.8285148,8.712267,4.5876393,0.0,0.0,0.0
OrientationDeg,1719891458884,95780590016600,164.0,-10.0,-62.0
UncalMag,1719891458886,95780592838839,80.2125,-45.54375,-54.24375,85.73942,4.7565236,-45.71802
UncalGyro,1719891458894,95780600007746,-0.038216334,-0.06351634,0.00585895,0.0025561561,-0.00061385153,0.0009437421
UncalAccel,1719891458894,95780600007746,0.7609176,8.721839,4.4775696,0.0,0.0,0.0
OrientationDeg,1719891458894,95780600007746,164.0,-10.0,-62.0
UncalMag,1719891458896,95780602838839,80.325005,-45.506252,-54.2625,85.73942,4.7565236,-45.71802
UncalGyro,1719891458903,95780609998944,-0.03502054,-0.06458161,0.0015978955,0.0025561561,-0.00061385153,0.0009437421
UncalAccel,1719891458903,95780609998944,0.75613195,8.73141,4.400999,0.0,0.0,0.0
OrientationDeg,1719891458903,95780609998944,164.0,-10.0,-62.0
UncalMag,1719891458906,95780612838839,80.325005,-45.581253,-54.2625,85.73942,4.7565236,-45.71802
UncalGyro,1719891458913,95780619990089,-0.02862896,-0.050733183,0.0037284228,0.0025561561,-0.00061385153,0.0009437421
UncalAccel,1719891458913,95780619990089,0.7704889,8.755338,4.276572,0.0,0.0,0.0
OrientationDeg,1719891458913,95780619990089,164.0,-10.0,-62.0
UncalMag,1719891458916,95780622838839,80.418755,-45.675003,-54.35625,85.73942,4.7565236,-45.71802
UncalGyro,1719891458923,95780629981339,-0.019041587,-0.016644744,0.00585895,0.0025561561,-0.00061385153,0.0009437421
UncalAccel,1719891458923,95780629981339,0.76570326,8.745767,4.2191443,0.0,0.0,0.0
OrientationDeg,1719891458923,95780629981339,164.0,-10.0,-62.0
UncalMag,1719891458926,95780632838839,80.30625,-45.65625,-54.24375,85.73942,4.7565236,-45.71802
UncalGyro,1719891458933,95780639972485,-0.008388951,0.032224227,0.007989477,0.0025561561,-0.00061385153,0.0009437421
UncalAccel,1719891458933,95780639972485,0.7609176,8.73141,4.3483567,0.0,0.0,0.0
OrientationDeg,1719891458933,95780639972485,164.0,-10.0,-62.0
UncalMag,1719891458936,95780642838839,80.26875,-45.65625,-54.375004,85.73942,4.7565236,-45.71802
UncalGyro,1719891458943,95780649963683,0.00972053,0.060986344,0.006924214,0.0025561561,-0.00061385153,0.0009437421
UncalAccel,1719891458943,95780649963683,0.7704889,8.73141,4.467998,0.0,0.0,0.0
OrientationDeg,1719891458943,95780649963683,164.0,-10.0,-62.0
UncalMag,1719891458946,95780652838839,80.512505,-45.581253,-54.206253,85.73942,4.7565236,-45.71802
UncalGyro,1719891458953,95780659954829,0.031025803,0.062051605,0.00585895,0.0025561561,-0.00061385153,0.0009437421
UncalAccel,1719891458953,95780659954829,0.7513463,8.745767,4.491926,0.0,0.0,0.0
OrientationDeg,1719891458953,95780659954829,164.0,-10.0,-62.0
UncalMag,1719891458956,95780662838839,80.71875,-45.881252,-54.16875,85.73942,4.7565236,-45.71802
UncalGyro,1719891458963,95780669946079,0.04167844,0.049268443,0.010120004,0.0025561561,-0.00061385153,0.0009437421
UncalAccel,1719891458963,95780669946079,0.7704889,8.803194,4.4967117,0.0,0.0,0.0
OrientationDeg,1719891458963,95780669946079,164.0,-10.0,-62.0
UncalMag,1719891458966,95780672838839,80.45625,-46.125,-54.2625,85.73942,4.7565236,-45.71802
UncalGyro,1719891458973,95780679937225,0.039547913,0.029028434,0.012250531,0.0025561561,-0.00061385153,0.0009437421
UncalAccel,1719891458973,95780679937225,0.76570326,8.817552,4.386642,0.0,0.0,0.0
OrientationDeg,1719891458973,95780679937225,164.0,-10.0,-62.0
UncalMag,1719891458976,95780682838839,80.30625,-46.10625,-54.112503,85.73942,4.7565236,-45.71802
UncalGyro,1719891458983,95780689928423,0.025699485,0.011984216,0.011185268,0.0025561561,-0.00061385153,0.0009437421
UncalAccel,1719891458983,95780689928423,0.78065836,8.836694,4.286144,0.0,0.0,0.0
OrientationDeg,1719891458983,95780689928423,164.0,-10.0,-62.0
UncalMag,1719891458986,95780692838839,80.45625,-46.162502,-53.943752,85.73942,4.7565236,-45.71802
UncalGyro,1719891458993,95780699919569,0.0011984216,0.0077231615,0.012250531,0.0025561561,-0.00061385153,0.0009437421
UncalAccel,1719891458993,95780699919569,0.785444,8.851649,4.228716,0.0,0.0,0.0
OrientationDeg,1719891458993,95780699919569,164.0,-10.0,-63.0
UncalMag,1719891458996,95780702838839,80.568756,-46.143753,-54.000004,85.73942,4.7565236,-45.71802
UncalGyro,1719891459003,95780709910819,-0.020106852,0.011984216,0.012250531,0.0025561561,-0.00061385153,0.0009437421
UncalAccel,1719891459003,95780709910819,0.7704889,8.793623,4.2717867,0.0,0.0,0.0
OrientationDeg,1719891459003,95780709910819,164.0,-10.0,-63.0
UncalMag,1719891459006,95780712838839,80.568756,-46.237503,-54.131252,85.73942,4.7565236,-45.71802
UncalGyro,1719891459013,95780719901964,-0.036085807,0.01944106,0.007989477,0.0025561561,-0.00061385153,0.0009437421
UncalAccel,1719891459013,95780719901964,0.71306115,8.769695,4.4392843,0.0,0.0,0.0
OrientationDeg,1719891459013,95780719901964,164.0,-10.0,-62.0
UncalMag,1719891459016,95780722838839,80.606255,-46.3125,-54.000004,85.73942,4.7565236,-45.71802
UncalGyro,1719891459023,95780729893214,-0.042477388,0.0013315795,0.006924214,0.0025561561,-0.00061385153,0.0009437421
UncalAccel,1719891459023,95780729893214,0.6652047,8.750552,4.5206404,0.0,0.0,0.0
OrientationDeg,1719891459023,95780729893214,164.0,-10.0,-62.0
UncalMag,1719891459026,95780732838839,80.53125,-46.3875,-54.506252,85.73942,4.7565236,-45.71802
UncalGyro,1719891459033,95780739884360,-0.044607915,-0.033688962,0.014381059,0.0025561561,-0.00061385153,0.0009437421
UncalAccel,1719891459033,95780739884360,0.6795616,8.784052,4.467998,0.0,0.0,0.0
OrientationDeg,1719891459033,95780739884360,164.0,-10.0,-62.0
UncalMag,1719891459036,95780742838839,80.45625,-46.162502,-54.600002,85.73942,4.7565236,-45.71802
UncalGyro,1719891459043,95780749875558,-0.050999496,-0.05286371,0.022903169,0.0025561561,-0.00061385153,0.0009437421
UncalAccel,1719891459043,95780749875558,0.799801,8.755338,4.391428,0.0,0.0,0.0
OrientationDeg,1719891459043,95780749875558,164.0,-10.0,-62.0
UncalMag,1719891459046,95780752838839,80.71875,-45.99375,-54.562504,85.73942,4.7565236,-45.71802
UncalGyro,1719891459053,95780759866704,-0.058456343,-0.049667917,0.021837905,0.0025561561,-0.00061385153,0.0009437421
UncalAccel,1719891459053,95780759866704,0.90029955,8.745767,4.386642,0.0,0.0,0.0
OrientationDeg,1719891459053,95780759866704,165.0,-10.0,-62.0
UncalMag,1719891459056,95780762838839,80.512505,-45.9,-54.768753,85.73942,4.7565236,-45.71802
UncalGyro,1719891459063,95780769857954,-0.06058687,-0.04860265,0.011185268,0.0025561561,-0.00061385153,0.0009437421
UncalAccel,1719891459063,95780769857954,0.9529416,8.736196,4.334,0.0,0.0,0.0
OrientationDeg,1719891459063,95780769857954,164.0,-10.0,-62.0
UncalMag,1719891459067,95780772838839,80.55,-45.975002,-54.881252,85.73942,4.7565236,-45.71802
UncalGyro,1719891459073,95780779849100,-0.06378266,-0.044341598,-0.002663159,0.0025561561,-0.00061385153,0.0009437421
UncalAccel,1719891459073,95780779849100,0.9529416,8.717052,4.3292146,0.0,0.0,0.0
OrientationDeg,1719891459073,95780779849100,165.0,-10.0,-62.0
UncalMag,1719891459076,95780782838839,80.287506,-46.143753,-54.750004,85.73942,4.7565236,-45.71802
UncalGyro,1719891459083,95780789840298,-0.07017424,-0.026232118,-0.013315796,0.0025561561,-0.00061385153,0.0009437421
UncalAccel,1719891459083,95780789840298,0.89072824,8.69791,4.511069,0.0,0.0,0.0
OrientationDeg,1719891459083,95780789840298,165.0,-10.0,-62.0
UncalMag,1719891459086,95780792838839,80.3625,-45.99375,-54.73125,85.73942,4.7565236,-45.71802
UncalAccel,1719891459093,95780799831444,0.79501534,8.76491,4.683352,0.0,0.0,0.0
UncalGyro,1719891459093,95780799831444,-0.0627174,-0.014514217,-0.017576851,0.0025561561,-0.00061385153,0.0009437421
UncalMag,1719891459096,95780802838839,80.381256,-45.9375,-54.937504,85.73942,4.7565236,-45.71802
UncalGyro,1719891459103,95780809822694,-0.039281595,-0.020905798,-0.012250531,0.0025561561,-0.00061385153,0.0009437421
UncalAccel,1719891459103,95780809822694,0.7178468,8.807981,4.7216372,0.0,0.0,0.0
OrientationDeg,1719891459093,95780799831444,165.0,-10.0,-62.0
OrientationDeg,1719891459103,95780809822694,165.0,-10.0,-62.0
UncalMag,1719891459106,95780812838839,80.15625,-45.9,-54.693752,85.73942,4.7565236,-45.71802
UncalGyro,1719891459113,95780819813839,-0.0073236874,-0.025166854,0.0015978955,0.0025561561,-0.00061385153,0.0009437421
UncalAccel,1719891459113,95780819813839,0.6987042,8.822337,4.6259246,0.0,0.0,0.0
OrientationDeg,1719891459114,95780819813839,165.0,-10.0,-62.0
UncalMag,1719891459116,95780822838839,80.25,-45.84375,-54.80625,85.73942,4.7565236,-45.71802
UncalGyro,1719891459123,95780829805089,0.019307904,-0.009187899,0.013315796,0.0025561561,-0.00061385153,0.0009437421
UncalAccel,1719891459123,95780829805089,0.7513463,8.7984085,4.491926,0.0,0.0,0.0
OrientationDeg,1719891459123,95780829805089,165.0,-10.0,-62.0
UncalMag,1719891459126,95780832838839,80.043755,-45.99375,-54.6375,85.73942,4.7565236,-45.71802
UncalGyro,1719891459133,95780839796235,0.038482647,0.015180007,0.019707378,0.0025561561,-0.00061385153,0.0009437421
UncalAccel,1719891459133,95780839796235,0.785444,8.755338,4.5206404,0.0,0.0,0.0
UncalMag,1719891459136,95780842838839,80.30625,-46.125,-54.693752,85.73942,4.7565236,-45.71802
OrientationDeg,1719891459133,95780839796235,165.0,-10.0,-62.0
UncalGyro,1719891459143,95780849787433,0.04167844,0.0109189525,0.019707378,0.0025561561,-0.00061385153,0.0009437421
UncalAccel,1719891459143,95780849787433,0.7704889,8.76491,4.5158544,0.0,0.0,0.0
OrientationDeg,1719891459143,95780849787433,165.0,-10.0,-62.0
UncalMag,1719891459146,95780852838839,80.15625,-46.237503,-54.843754,85.73942,4.7565236,-45.71802
UncalGyro,1719891459153,95780859778579,0.02996054,-0.010253162,0.015446323,0.0025561561,-0.00061385153,0.0009437421
UncalAccel,1719891459153,95780859778579,0.7902297,8.807981,4.453641,0.0,0.0,0.0
OrientationDeg,1719891459153,95780859778579,165.0,-10.0,-62.0
UncalMag,1719891459156,95780862838839,80.287506,-45.975002,-54.80625,85.73942,4.7565236,-45.71802
UncalGyro,1719891459163,95780869769829,0.008655267,-0.030493172,0.014381059,0.0025561561,-0.00061385153,0.0009437421
UncalAccel,1719891459163,95780869769829,0.8237292,8.7984085,4.377071,0.0,0.0,0.0
OrientationDeg,1719891459163,95780869769829,165.0,-10.0,-62.0
UncalMag,1719891459166,95780872838839,80.15625,-46.068752,-54.91875,85.73942,4.7565236,-45.71802
UncalGyro,1719891459173,95780879760975,-0.0105194785,-0.036884755,0.010120004,0.0025561561,-0.00061385153,0.0009437421
UncalAccel,1719891459173,95780879760975,0.8380861,8.769695,4.3292146,0.0,0.0,0.0
UncalMag,1719891459176,95780882838839,80.25,-45.975002,-54.975002,85.73942,4.7565236,-45.71802
OrientationDeg,1719891459173,95780879760975,165.0,-10.0,-62.0
UncalGyro,1719891459183,95780889752173,-0.024367906,-0.026232118,0.0037284228,0.0025561561,-0.00061385153,0.0009437421
UncalAccel,1719891459183,95780889752173,0.8380861,8.750552,4.386642,0.0,0.0,0.0
OrientationDeg,1719891459183,95780889752173,165.0,-10.0,-62.0
UncalMag,1719891459186,95780892838839,80.381256,-45.84375,-55.162502,85.73942,4.7565236,-45.71802
UncalGyro,1719891459193,95780899743319,-0.026498433,-0.026232118,0.0005326318,0.0025561561,-0.00061385153,0.0009437421
UncalAccel,1719891459193,95780899743319,0.81894356,8.717052,4.434499,0.0,0.0,0.0
UncalMag,1719891459196,95780902838839,80.193756,-45.956253,-54.956253,85.73942,4.7565236,-45.71802
UncalGyro,1719891459203,95780909734569,-0.027563697,-0.033688962,0.0005326318,0.0025561561,-0.00061385153,0.0009437421
UncalAccel,1719891459203,95780909734569,0.785444,8.736196,4.4632125,0.0,0.0,0.0
OrientationDeg,1719891459193,95780899743319,165.0,-10.0,-62.0
OrientationDeg,1719891459203,95780909734569,165.0,-10.0,-62.0
UncalMag,1719891459206,95780912838839,80.25,-45.75,-54.937504,85.73942,4.7565236,-45.71802
UncalGyro,1719891459213,95780919725714,-0.032890014,-0.046472125,0.002663159,0.0025561561,-0.00061385153,0.0009437421
UncalAccel,1719891459213,95780919725714,0.7752745,8.769695,4.491926,0.0,0.0,0.0
OrientationDeg,1719891459213,95780919725714,165.0,-10.0,-62.0
UncalMag,1719891459216,95780922838839,80.175,-45.881252,-54.825,85.73942,4.7565236,-45.71802
UncalGyro,1719891459223,95780929716912,-0.04034686,-0.0560595,0.0037284228,0.0025561561,-0.00061385153,0.0009437421
UncalAccel,1719891459223,95780929716912,0.8333005,8.774481,4.4967117,0.0,0.0,0.0
OrientationDeg,1719891459223,95780929716912,165.0,-10.0,-62.0
UncalMag,1719891459226,95780932838839,80.53125,-45.80625,-54.937504,85.73942,4.7565236,-45.71802
UncalAccel,1719891459233,95780939708058,0.87158567,8.760123,4.434499,0.0,0.0,0.0
UncalGyro,1719891459233,95780939708058,-0.04354265,-0.06245108,0.002663159,0.0025561561,-0.00061385153,0.0009437421
OrientationDeg,1719891459233,95780939708058,165.0,-10.0,-62.0
UncalMag,1719891459236,95780942838839,80.53125,-45.768753,-55.218754,85.73942,4.7565236,-45.71802
UncalGyro,1719891459243,95780949699308,-0.03715107,-0.04860265,0.0005326318,0.0025561561,-0.00061385153,0.0009437421
Agc,1719891459604,33316318000000,18,0.0,-1403893361286692129,0.8781471252441406,1010439.7535324097,0.0,293.4368984939002,16,-48.25,1575420000,1
Agc,1719891459604,33316318000000,18,0.0,-1403893361286692129,0.8781471252441406,1010439.7535324097,0.0,293.4368984939002,16,-48.25,1575420000,4
Agc,1719891459604,33316318000000,18,0.0,-1403893361286692129,0.8781471252441406,1010439.7535324097,0.0,293.4368984939002,16,-43.21,1602000000,3
Agc,1719891459604,33316318000000,18,0.0,-1403893361286692129,0.8781471252441406,1010439.7535324097,0.0,293.4368984939002,16,-51.99,1575420000,6
Agc,1719891459604,33316318000000,18,0.0,-1403893361286692129,0.8781471252441406,1010439.7535324097,0.0,293.4368984939002,16,-39.75,1176450000,1
Agc,1719891459604,33316318000000,18,0.0,-1403893361286692129,0.8781471252441406,1010439.7535324097,0.0,293.4368984939002,16,-39.75,1176450000,4
Agc,1719891459604,33316318000000,18,0.0,-1403893361286692129,0.8781471252441406,1010439.7535324097,0.0,293.4368984939002,16,-39.75,1176450000,6
OrientationDeg,1719891459243,95780949699308,165.0,-10.0,-62.0
UncalAccel,1719891459243,95780949699308,0.8811569,8.755338,4.3962135,0.0,0.0,0.0
Status,,26,0,1,12,1575420030,19.50,85.627594,58.87125,0,1,1,15.9
Status,,26,1,1,5,1575420030,0.00,122.90794,22.713324,0,1,1,0.0
Status,,26,2,1,11,1575420030,0.00,46.091595,35.129055,0,1,1,0.0
Status,,26,3,1,18,1575420030,0.00,207.7226,20.551083,0,1,1,0.0
Status,,26,4,1,20,1575420030,0.00,91.2918,29.116297,0,1,1,0.0
Status,,26,5,1,24,1575420030,0.00,175.15865,18.354092,0,1,1,0.0
Status,,26,6,1,25,1575420030,0.00,358.74545,71.480606,0,1,1,0.0
Status,,26,7,1,28,1575420030,0.00,306.9863,29.054976,0,1,1,0.0
Status,,26,8,1,29,1575420030,0.00,294.7675,54.322025,1,1,1,0.0
Status,,26,9,1,31,1575420030,0.00,323.8882,3.989733,0,1,1,0.0
Status,,26,10,1,32,1575420030,0.00,259.3915,1.2460616,0,1,1,0.0
Status,,26,11,4,195,1575420030,0.00,0.0,0.0,0,1,1,0.0
Status,,26,12,3,14,1598062460,0.00,28.16081,80.898636,1,1,1,0.0
Status,,26,13,3,18,1600312450,0.00,221.88739,5.2696214,0,1,1,0.0
Status,,26,14,3,13,1600875010,0.00,138.80797,29.424345,0,1,1,0.0
Status,,26,15,3,15,1602000000,0.00,330.1033,29.926235,0,1,1,0.0
Status,,26,16,3,24,1603124990,0.00,7.7105,63.745403,0,1,1,0.0
Status,,26,17,3,23,1603687550,0.00,32.61348,10.443223,0,1,1,0.0
Status,,26,18,3,17,1604249980,0.00,238.03094,50.25578,0,1,1,0.0
Status,,26,19,6,4,1575420030,0.00,299.965,0.33674493,0,1,1,0.0
Status,,26,20,6,13,1575420030,0.00,99.27841,75.923775,0,1,1,0.0
Status,,26,21,6,15,1575420030,0.00,40.794434,28.334047,0,1,1,0.0
Status,,26,22,6,19,1575420030,0.00,247.3496,5.383388,0,1,1,0.0
Status,,26,23,6,21,1575420030,0.00,348.47806,65.89563,1,1,1,0.0
Status,,26,24,6,26,1575420030,0.00,201.15654,37.593166,0,1,1,0.0
Status,,26,25,6,27,1575420030,0.00,101.23005,46.165314,0,1,1,0.0
UncalMag,1719891459246,95780952838839,80.606255,-45.768753,-55.256252,85.73942,4.7565236,-45.71802
UncalGyro,1719891459253,95780959690454,-0.02543317,-0.01238369,-0.0037284228,0.0025561561,-0.00061385153,0.0009437421
UncalAccel,1719891459253,95780959690454,0.8668,8.736196,4.434499,0.0,0.0,0.0
UncalMag,1719891459256,95780962838839,80.71875,-45.9,-55.0875,85.73942,4.7565236,-45.71802
OrientationDeg,1719891459253,95780959690454,165.0,-10.0,-62.0
UncalGyro,1719891459263,95780969681652,-0.009454215,0.01304948,-0.0015978955,0.0025561561,-0.00061385153,0.0009437421
UncalAccel,1719891459263,95780969681652,0.85244304,8.702696,4.458427,0.0,0.0,0.0
OrientationDeg,1719891459263,95780969681652,165.0,-10.0,-62.0
UncalMag,1719891459266,95780972838839,80.625,-46.0125,-55.050003,85.73942,4.7565236,-45.71802
UncalAccel,1719891459273,95780979672798,0.86201435,8.688339,4.4488554,0.0,0.0,0.0
UncalGyro,1719891459273,95780979672798,0.003328949,0.02476738,0.0005326318,0.0025561561,-0.00061385153,0.0009437421
OrientationDeg,1719891459273,95780979672798,165.0,-10.0,-62.0
UncalMag,1719891459276,95780982838839,80.68125,-46.18125,-55.162502,85.73942,4.7565236,-45.71802
UncalGyro,1719891459283,95780989664048,0.0011984216,0.022636853,-0.002663159,0.0025561561,-0.00061385153,0.0009437421
UncalAccel,1719891459283,95780989664048,0.8380861,8.69791,4.429713,0.0,0.0,0.0
OrientationDeg,1719891459283,95780989664048,165.0,-10.0,-62.0
UncalMag,1719891459286,95780992838839,80.68125,-46.068752,-55.275,85.73942,4.7565236,-45.71802
UncalGyro,1719891459293,95780999655194,-0.014780533,0.009853689,-0.00585895,0.0025561561,-0.00061385153,0.0009437421
UncalAccel,1719891459293,95780999655194,0.7704889,8.736196,4.386642,0.0,0.0,0.0
OrientationDeg,1719891459293,95780999655194,165.0,-10.0,-62.0
UncalMag,1719891459296,95781002838839,80.9625,-45.956253,-55.425003,85.73942,4.7565236,-45.71802
UncalGyro,1719891459303,95781009646444,-0.03715107,-0.0017310535,-0.009054741,0.0025561561,-0.00061385153,0.0009437421
UncalAccel,1719891459303,95781009646444,0.74177504,8.76491,4.4057846,0.0,0.0,0.0
UncalMag,1719891459306,95781012838839,80.7375,-45.693752,-55.331253,85.73942,4.7565236,-45.71802
OrientationDeg,1719891459303,95781009646444,165.0,-10.0,-62.0
UncalGyro,1719891459313,95781019637589,-0.05206476,-0.002796317,-0.006924214,0.0025561561,-0.00061385153,0.0009437421
UncalAccel,1719891459313,95781019637589,0.7513463,8.740981,4.525426,0.0,0.0,0.0
OrientationDeg,1719891459313,95781019637589,165.0,-10.0,-62.0
UncalMag,1719891459316,95781022838839,80.606255,-45.862503,-55.256252,85.73942,4.7565236,-45.71802
UncalGyro,1719891459323,95781029628787,-0.046738442,-0.016644744,-0.0037284228,0.0025561561,-0.00061385153,0.0009437421
UncalAccel,1719891459323,95781029628787,0.79501534,8.736196,4.5972104,0.0,0.0,0.0
OrientationDeg,1719891459323,95781029628787,165.0,-10.0,-62.0
UncalMag,1719891459326,95781032838839,80.83125,-45.825,-55.237503,85.73942,4.7565236,-45.71802
UncalGyro,1719891459333,95781039619933,-0.036085807,-0.04114581,-0.0037284228,0.0025561561,-0.00061385153,0.0009437421
UncalAccel,1719891459333,95781039619933,0.7902297,8.712267,4.558925,0.0,0.0,0.0
OrientationDeg,1719891459333,95781039619933,165.0,-10.0,-62.0
UncalMag,1719891459336,95781042838839,81.037506,-45.73125,-55.425003,85.73942,4.7565236,-45.71802
UncalGyro,1719891459343,95781049611183,-0.029694224,-0.049667917,-0.00585895,0.0025561561,-0.00061385153,0.0009437421
UncalAccel,1719891459343,95781049611183,0.8045866,8.721839,4.5158544,0.0,0.0,0.0
OrientationDeg,1719891459343,95781049611183,165.0,-10.0,-62.0
UncalMag,1719891459346,95781052838839,81.131256,-45.675003,-55.537502,85.73942,4.7565236,-45.71802
UncalGyro,1719891459353,95781059602329,-0.02862896,-0.040080544,-0.007989477,0.0025561561,-0.00061385153,0.0009437421
UncalAccel,1719891459353,95781059602329,0.81894356,8.769695,4.5684967,0.0,0.0,0.0
UncalMag,1719891459356,95781062838839,81.075005,-45.54375,-55.8375,85.73942,4.7565236,-45.71802
OrientationDeg,1719891459353,95781059602329,165.0,-10.0,-62.0
UncalGyro,1719891459363,95781069593527,-0.02543317,-0.0326237,-0.00585895,0.0025561561,-0.00061385153,0.0009437421
UncalAccel,1719891459363,95781069593527,0.81894356,8.769695,4.606782,0.0,0.0,0.0
OrientationDeg,1719891459363,95781069593527,165.0,-10.0,-62.0
UncalMag,1719891459366,95781072838839,80.9625,-45.693752,-56.04375,85.73942,4.7565236,-45.71802
UncalGyro,1719891459373,95781079584673,-0.013715269,-0.03581949,0.0037284228,0.0025561561,-0.00061385153,0.0009437421
UncalAccel,1719891459373,95781079584673,0.86201435,8.740981,4.5397825,0.0,0.0,0.0
OrientationDeg,1719891459373,95781079584673,165.0,-10.0,-62.0
UncalMag,1719891459376,95781082838839,80.756256,-45.862503,-55.987503,85.73942,4.7565236,-45.71802
UncalGyro,1719891459383,95781089575923,-0.0019973693,-0.0326237,0.013315796,0.0025561561,-0.00061385153,0.0009437421
UncalAccel,1719891459383,95781089575923,0.90508515,8.69791,4.4632125,0.0,0.0,0.0
OrientationDeg,1719891459383,95781089575923,165.0,-10.0,-62.0
UncalMag,1719891459386,95781092838839,80.68125,-46.0125,-55.893753,85.73942,4.7565236,-45.71802
UncalGyro,1719891459393,95781099567069,0.00013315796,-0.021971062,0.011185268,0.0025561561,-0.00061385153,0.0009437421
UncalAccel,1719891459393,95781099567069,0.9194421,8.678768,4.41057,0.0,0.0,0.0
OrientationDeg,1719891459393,95781099567069,165.0,-10.0,-62.0
UncalMag,1719891459396,95781102838839,80.83125,-45.84375,-55.85625,85.73942,4.7565236,-45.71802
UncalGyro,1719891459403,95781109558319,-0.009454215,-0.018775271,0.0015978955,0.0025561561,-0.00061385153,0.0009437421
UncalAccel,1719891459403,95781109558319,0.9098708,8.717052,4.3483567,0.0,0.0,0.0
OrientationDeg,1719891459403,95781109558319,165.0,-10.0,-62.0
UncalMag,1719891459406,95781112838839,80.68125,-45.825,-55.74375,85.73942,4.7565236,-45.71802
UncalGyro,1719891459413,95781119549464,-0.026498433,-0.016644744,-0.00585895,0.0025561561,-0.00061385153,0.0009437421
UncalAccel,1719891459413,95781119549464,0.8380861,8.755338,4.343571,0.0,0.0,0.0
OrientationDeg,1719891459413,95781119549464,165.0,-10.0,-62.0
UncalMag,1719891459416,95781122838839,80.26875,-45.84375,-55.65,85.73942,4.7565236,-45.71802
UncalGyro,1719891459424,95781129540662,-0.04354265,-0.010253162,-0.007989477,0.0025561561,-0.00061385153,0.0009437421
UncalAccel,1719891459423,95781129540662,0.7704889,8.750552,4.458427,0.0,0.0,0.0
OrientationDeg,1719891459423,95781129540662,165.0,-10.0,-62.0
UncalMag,1719891459426,95781132838839,80.175,-45.825,-55.48125,85.73942,4.7565236,-45.71802
UncalAccel,1719891459434,95781139531808,0.7369894,8.736196,4.6115675,0.0,0.0,0.0
UncalGyro,1719891459433,95781139531808,-0.04886897,-0.009187899,-0.00585895,0.0025561561,-0.00061385153,0.0009437421
OrientationDeg,1719891459433,95781139531808,165.0,-10.0,-62.0
UncalMag,1719891459436,95781142838839,80.175,-45.80625,-55.18125,85.73942,4.7565236,-45.71802
UncalGyro,1719891459443,95781149523058,-0.03395528,-0.02410159,-0.0005326318,0.0025561561,-0.00061385153,0.0009437421
UncalAccel,1719891459443,95781149523058,0.7465607,8.7266245,4.659424,0.0,0.0,0.0
OrientationDeg,1719891459443,95781149523058,165.0,-10.0,-62.0
UncalMag,1719891459446,95781152838839,80.34375,-46.0125,-55.0125,85.73942,4.7565236,-45.71802
UncalGyro,1719891459453,95781159514204,-0.017976323,-0.04114581,0.0015978955,0.0025561561,-0.00061385153,0.0009437421
UncalAccel,1719891459453,95781159514204,0.7704889,8.73141,4.6211386,0.0,0.0,0.0
OrientationDeg,1719891459453,95781159514204,165.0,-10.0,-62.0
UncalMag,1719891459456,95781162838839,80.231255,-45.91875,-54.862503,85.73942,4.7565236,-45.71802
UncalGyro,1719891459463,95781169505402,-0.009454215,-0.051798444,0.0047936863,0.0025561561,-0.00061385153,0.0009437421
UncalAccel,1719891459463,95781169505402,0.8333005,8.707481,4.563711,0.0,0.0,0.0
OrientationDeg,1719891459463,95781169505402,165.0,-10.0,-62.0
UncalMag,1719891459466,95781172838839,80.11875,-45.975002,-54.91875,85.73942,4.7565236,-45.71802
UncalGyro,1719891459473,95781179496548,-0.008388951,-0.058190025,-0.0005326318,0.0025561561,-0.00061385153,0.0009437421
UncalAccel,1719891459473,95781179496548,0.86201435,8.688339,4.511069,0.0,0.0,0.0
OrientationDeg,1719891459473,95781179496548,165.0,-10.0,-62.0
UncalMag,1719891459476,95781182838839,79.93125,-45.80625,-54.768753,85.73942,4.7565236,-45.71802
UncalGyro,1719891459483,95781189487798,-0.015845796,-0.060320552,-0.010120004,0.0025561561,-0.00061385153,0.0009437421
UncalAccel,1719891459483,95781189487798,0.8668,8.678768,4.3722854,0.0,0.0,0.0
OrientationDeg,1719891459483,95781189487798,166.0,-10.0,-62.0
UncalMag,1719891459486,95781192838839,80.08125,-46.0125,-54.937504,85.73942,4.7565236,-45.71802
UncalGyro,1719891459493,95781199478944,-0.03502054,-0.040080544,-0.015446323,0.0025561561,-0.00061385153,0.0009437421
UncalAccel,1719891459493,95781199478944,0.8668,8.740981,4.3818564,0.0,0.0,0.0
OrientationDeg,1719891459493,95781199478944,166.0,-10.0,-62.0
UncalMag,1719891459496,95781202838839,80.3625,-45.9,-54.881252,85.73942,4.7565236,-45.71802
UncalGyro,1719891459503,95781209470141,-0.041412123,-0.023036325,-0.010120004,0.0025561561,-0.00061385153,0.0009437421
UncalAccel,1719891459503,95781209470141,0.86201435,8.740981,4.467998,0.0,0.0,0.0
OrientationDeg,1719891459503,95781209470141,166.0,-10.0,-62.0
UncalMag,1719891459506,95781212838839,80.34375,-45.91875,-54.862503,85.73942,4.7565236,-45.71802
UncalGyro,1719891459513,95781219461287,-0.04354265,-0.026232118,-0.006924214,0.0025561561,-0.00061385153,0.0009437421
UncalAccel,1719891459513,95781219461287,0.8428718,8.717052,4.5014977,0.0,0.0,0.0
OrientationDeg,1719891459513,95781219461287,166.0,-10.0,-62.0
UncalMag,1719891459516,95781222838839,80.512505,-45.80625,-54.768753,85.73942,4.7565236,-45.71802
UncalGyro,1719891459523,95781229452537,-0.04034686,-0.026232118,-0.00585895,0.0025561561,-0.00061385153,0.0009437421
UncalAccel,1719891459523,95781229452537,0.81894356,8.7266245,4.5302114,0.0,0.0,0.0
UncalMag,1719891459526,95781232838839,80.49375,-45.525,-54.693752,85.73942,4.7565236,-45.71802
OrientationDeg,1719891459523,95781229452537,166.0,-10.0,-62.0
UncalGyro,1719891459533,95781239443683,-0.036085807,-0.020905798,-0.0037284228,0.0025561561,-0.00061385153,0.0009437421
UncalAccel,1719891459533,95781239443683,0.81894356,8.721839,4.5062833,0.0,0.0,0.0
UncalMag,1719891459536,95781242838839,80.606255,-45.412502,-54.768753,85.73942,4.7565236,-45.71802
OrientationDeg,1719891459533,95781239443683,166.0,-10.0,-62.0
UncalGyro,1719891459543,95781249434933,-0.031824753,-0.019840535,-0.0005326318,0.0025561561,-0.00061385153,0.0009437421
UncalAccel,1719891459543,95781249434933,0.799801,8.664411,4.458427,0.0,0.0,0.0
UncalMag,1719891459546,95781252838839,80.793755,-45.412502,-54.61875,85.73942,4.7565236,-45.71802
OrientationDeg,1719891459543,95781249434933,166.0,-10.0,-62.0
UncalGyro,1719891459553,95781259426079,-0.036085807,-0.021971062,0.00585895,0.0025561561,-0.00061385153,0.0009437421
UncalAccel,1719891459553,95781259426079,0.8380861,8.669196,4.424927,0.0,0.0,0.0
OrientationDeg,1719891459553,95781259426079,166.0,-10.0,-62.0
UncalMag,1719891459556,95781262838839,80.793755,-45.768753,-54.6375,85.73942,4.7565236,-45.71802
UncalGyro,1719891459563,95781269417277,-0.049934234,-0.026232118,0.009054741,0.0025561561,-0.00061385153,0.0009437421
UncalAccel,1719891459563,95781269417277,0.89072824,8.664411,4.4057846,0.0,0.0,0.0
OrientationDeg,1719891459563,95781269417277,166.0,-10.0,-62.0
UncalMag,1719891459566,95781272838839,80.55,-45.506252,-54.750004,85.73942,4.7565236,-45.71802
UncalGyro,1719891459573,95781279408423,-0.07550056,-0.027297381,0.009054741,0.0025561561,-0.00061385153,0.0009437421
UncalAccel,1719891459573,95781279408423,0.9194421,8.645268,4.491926,0.0,0.0,0.0
OrientationDeg,1719891459573,95781279408423,166.0,-10.0,-62.0
UncalMag,1719891459576,95781282838839,80.381256,-45.80625,-54.693752,85.73942,4.7565236,-45.71802
UncalGyro,1719891459583,95781289399673,-0.09361004,-0.019840535,0.00585895,0.0025561561,-0.00061385153,0.0009437421
UncalAccel,1719891459583,95781289399673,0.8955139,8.630911,4.6450667,0.0,0.0,0.0
OrientationDeg,1719891459583,95781289399673,166.0,-10.0,-61.0
UncalMag,1719891459586,95781292838839,80.325005,-46.0125,-54.61875,85.73942,4.7565236,-45.71802
UncalGyro,1719891459593,95781299390819,-0.09254478,-0.031558435,0.002663159,0.0025561561,-0.00061385153,0.0009437421
UncalAccel,1719891459593,95781299390819,0.87637126,8.669196,4.6546383,0.0,0.0,0.0
OrientationDeg,1719891459593,95781299390819,166.0,-10.0,-61.0
UncalMag,1719891459596,95781302838839,80.30625,-46.03125,-54.768753,85.73942,4.7565236,-45.71802
UncalGyro,1719891459603,95781309382069,-0.08082688,-0.043276336,0.0015978955,0.0025561561,-0.00061385153,0.0009437421
UncalAccel,1719891459603,95781309382069,0.8572287,8.69791,4.5732822,0.0,0.0,0.0
OrientationDeg,1719891459603,95781309382069,166.0,-10.0,-61.0
UncalMag,1719891459606,95781312838839,80.325005,-46.0875,-55.031254,85.73942,4.7565236,-45.71802
UncalGyro,1719891459613,95781319373214,-0.068043716,-0.034754228,-0.0015978955,0.0025561561,-0.00061385153,0.0009437421
UncalAccel,1719891459613,95781319373214,0.8285148,8.707481,4.558925,0.0,0.0,0.0
OrientationDeg,1719891459613,95781319373214,166.0,-10.0,-61.0
UncalMag,1719891459616,95781322838839,80.30625,-46.068752,-55.050003,85.73942,4.7565236,-45.71802
UncalGyro,1719891459623,95781329364412,-0.04886897,-0.002796317,-0.006924214,0.0025561561,-0.00061385153,0.0009437421
UncalAccel,1719891459623,95781329364412,0.7465607,8.721839,4.697709,0.0,0.0,0.0
OrientationDeg,1719891459623,95781329364412,166.0,-10.0,-61.0
UncalMag,1719891459626,95781332838839,80.4,-45.91875,-55.237503,85.73942,4.7565236,-45.71802
UncalGyro,1719891459633,95781339355558,-0.02862896,0.009853689,-0.0037284228,0.0025561561,-0.00061385153,0.0009437421
UncalAccel,1719891459633,95781339355558,0.72741807,8.760123,4.8173504,0.0,0.0,0.0
UncalMag,1719891459636,95781342838839,80.475006,-45.9375,-55.2,85.73942,4.7565236,-45.71802
OrientationDeg,1719891459633,95781339355558,166.0,-10.0,-61.0
UncalGyro,1719891459643,95781349346808,-0.0126500055,-0.008122635,0.00585895,0.0025561561,-0.00061385153,0.0009437421
UncalAccel,1719891459643,95781349346808,0.71306115,8.760123,4.7694936,0.0,0.0,0.0
OrientationDeg,1719891459643,95781349346808,166.0,-10.0,-61.0
UncalMag,1719891459646,95781352838839,80.53125,-46.10625,-54.80625,85.73942,4.7565236,-45.71802
UncalGyro,1719891459653,95781359337954,-0.008388951,-0.023036325,0.016511586,0.0025561561,-0.00061385153,0.0009437421
UncalAccel,1719891459653,95781359337954,0.8045866,8.721839,4.683352,0.0,0.0,0.0
OrientationDeg,1719891459653,95781359337954,166.0,-10.0,-61.0
UncalMag,1719891459656,95781362838839,80.45625,-45.99375,-54.80625,85.73942,4.7565236,-45.71802
UncalAccel,1719891459663,95781369329204,0.933799,8.659625,4.6211386,0.0,0.0,0.0
UncalGyro,1719891459663,95781369329204,-0.013715269,-0.029427908,0.021837905,0.0025561561,-0.00061385153,0.0009437421
UncalMag,1719891459666,95781372838839,80.512505,-45.73125,-54.675003,85.73942,4.7565236,-45.71802
OrientationDeg,1719891459663,95781369329204,166.0,-10.0,-61.0
UncalAccel,1719891459673,95781379320350,0.9912268,8.630911,4.5876393,0.0,0.0,0.0
UncalGyro,1719891459673,95781379320350,-0.021172116,-0.039015282,0.013315796,0.0025561561,-0.00061385153,0.0009437421
OrientationDeg,1719891459673,95781379320350,166.0,-10.0,-61.0
UncalMag,1719891459676,95781382838839,80.30625,-45.862503,-54.768753,85.73942,4.7565236,-45.71802
UncalGyro,1719891459683,95781389311548,-0.029694224,-0.039015282,0.0005326318,0.0025561561,-0.00061385153,0.0009437421
UncalAccel,1719891459683,95781389311548,0.98644114,8.640483,4.5972104,0.0,0.0,0.0
OrientationDeg,1719891459683,95781389311548,166.0,-10.0,-61.0
UncalMag,1719891459686,95781392838839,80.2125,-45.975002,-54.393753,85.73942,4.7565236,-45.71802
UncalGyro,1719891459693,95781399302694,-0.030759487,-0.023036325,-0.011185268,0.0025561561,-0.00061385153,0.0009437421
UncalAccel,1719891459693,95781399302694,0.9290134,8.659625,4.70728,0.0,0.0,0.0
OrientationDeg,1719891459693,95781399302694,166.0,-10.0,-61.0
UncalMag,1719891459696,95781402838839,80.175,-46.0125,-54.506252,85.73942,4.7565236,-45.71802
UncalAccel,1719891459703,95781409293944,0.8141579,8.693125,4.8269215,0.0,0.0,0.0
UncalGyro,1719891459703,95781409293944,-0.019041587,-0.018775271,-0.014381059,0.0025561561,-0.00061385153,0.0009437421
OrientationDeg,1719891459703,95781409293944,166.0,-10.0,-61.0
UncalMag,1719891459706,95781412838839,80.006256,-45.9,-54.281254,85.73942,4.7565236,-45.71802
UncalGyro,1719891459713,95781419285089,0.0022636852,-0.033688962,-0.006924214,0.0025561561,-0.00061385153,0.0009437421
UncalAccel,1719891459713,95781419285089,0.7082755,8.712267,4.7455654,0.0,0.0,0.0
OrientationDeg,1719891459713,95781419285089,166.0,-10.0,-61.0
UncalMag,1719891459716,95781422838839,80.043755,-45.75,-54.375004,85.73942,4.7565236,-45.71802
UncalGyro,1719891459723,95781429276339,0.019307904,-0.034754228,0.0015978955,0.0025561561,-0.00061385153,0.0009437421
UncalAccel,1719891459723,95781429276339,0.7369894,8.721839,4.6259246,0.0,0.0,0.0
UncalMag,1719891459726,95781432838839,79.8,-45.881252,-54.750004,85.73942,4.7565236,-45.71802
OrientationDeg,1719891459723,95781429276339,166.0,-10.0,-61.0
UncalAccel,1719891459733,95781439267485,0.78065836,8.73141,4.563711,0.0,0.0,0.0
UncalGyro,1719891459733,95781439267485,0.02996054,-0.02410159,0.012250531,0.0025561561,-0.00061385153,0.0009437421
OrientationDeg,1719891459733,95781439267485,166.0,-10.0,-61.0
UncalMag,1719891459736,95781442838839,79.818756,-45.881252,-55.0875,85.73942,4.7565236,-45.71802
UncalGyro,1719891459743,95781449258683,0.02996054,-0.023036325,0.017576851,0.0025561561,-0.00061385153,0.0009437421
UncalAccel,1719891459743,95781449258683,0.8380861,8.693125,4.511069,0.0,0.0,0.0
OrientationDeg,1719891459743,95781449258683,166.0,-10.0,-61.0
UncalMag,1719891459746,95781452838839,79.856255,-46.125,-55.537502,85.73942,4.7565236,-45.71802
UncalGyro,1719891459753,95781459249829,0.020373167,-0.025166854,0.015446323,0.0025561561,-0.00061385153,0.0009437421
UncalAccel,1719891459753,95781459249829,0.91465646,8.645268,4.41057,0.0,0.0,0.0
OrientationDeg,1719891459753,95781459249829,166.0,-10.0,-61.0
UncalMag,1719891459756,95781462838839,79.93125,-46.10625,-55.312504,85.73942,4.7565236,-45.71802
UncalGyro,1719891459763,95781469241079,0.0022636852,-0.019840535,0.00585895,0.0025561561,-0.00061385153,0.0009437421
UncalAccel,1719891459763,95781469241079,0.9816555,8.62134,4.424927,0.0,0.0,0.0
OrientationDeg,1719891459763,95781469241079,166.0,-10.0,-61.0
UncalMag,1719891459766,95781472838839,79.856255,-45.975002,-55.406254,85.73942,4.7565236,-45.71802
UncalGyro,1719891459773,95781479232225,-0.011584742,-0.014514217,-0.0047936863,0.0025561561,-0.00061385153,0.0009437421
UncalAccel,1719891459773,95781479232225,0.99601245,8.616554,4.4871407,0.0,0.0,0.0
OrientationDeg,1719891459773,95781479232225,166.0,-10.0,-61.0
UncalMag,1719891459776,95781482838839,79.8,-46.068752,-55.2,85.73942,4.7565236,-45.71802
UncalGyro,1719891459783,95781489223423,-0.017976323,-0.009187899,-0.015446323,0.0025561561,-0.00061385153,0.0009437421
UncalAccel,1719891459783,95781489223423,0.95772725,8.606983,4.5732822,0.0,0.0,0.0
OrientationDeg,1719891459783,95781489223423,166.0,-10.0,-61.0
UncalMag,1719891459786,95781492838839,79.818756,-46.21875,-55.406254,85.73942,4.7565236,-45.71802
UncalGyro,1719891459793,95781499214569,-0.0073236874,0.0023968432,-0.020772642,0.0025561561,-0.00061385153,0.0009437421
UncalAccel,1719891459793,95781499214569,0.87158567,8.606983,4.6881375,0.0,0.0,0.0
OrientationDeg,1719891459793,95781499214569,166.0,-10.0,-61.0
UncalMag,1719891459796,95781502838839,79.818756,-46.350002,-55.612503,85.73942,4.7565236,-45.71802
UncalGyro,1719891459803,95781509205819,0.00972053,0.0023968432,-0.016511586,0.0025561561,-0.00061385153,0.0009437421
UncalAccel,1719891459803,95781509205819,0.785444,8.6548395,4.70728,0.0,0.0,0.0
OrientationDeg,1719891459803,95781509205819,166.0,-10.0,-61.0
UncalMag,1719891459806,95781512838839,80.100006,-46.143753,-55.687504,85.73942,4.7565236,-45.71802
UncalGyro,1719891459813,95781519196964,0.028895276,0.0109189525,-0.006924214,0.0025561561,-0.00061385153,0.0009437421
UncalAccel,1719891459813,95781519196964,0.7609176,8.69791,4.697709,0.0,0.0,0.0
OrientationDeg,1719891459813,95781519196964,166.0,-10.0,-61.0
UncalMag,1719891459816,95781522838839,80.08125,-46.2,-55.4625,85.73942,4.7565236,-45.71802
UncalGyro,1719891459823,95781529188214,0.05339634,0.023702117,-0.0005326318,0.0025561561,-0.00061385153,0.0009437421
UncalAccel,1719891459823,95781529188214,0.785444,8.73141,4.697709,0.0,0.0,0.0
OrientationDeg,1719891459823,95781529188214,166.0,-10.0,-61.0
UncalMag,1719891459826,95781532838839,80.231255,-46.03125,-55.331253,85.73942,4.7565236,-45.71802
UncalGyro,1719891459833,95781539179360,0.072571084,0.02796317,0.0047936863,0.0025561561,-0.00061385153,0.0009437421
UncalAccel,1719891459833,95781539179360,0.799801,8.745767,4.6259246,0.0,0.0,0.0
OrientationDeg,1719891459833,95781539179360,166.0,-10.0,-61.0
UncalMag,1719891459836,95781542838839,80.475006,-45.9375,-55.218754,85.73942,4.7565236,-45.71802
UncalGyro,1719891459843,95781549170558,0.07896267,0.026897907,0.006924214,0.0025561561,-0.00061385153,0.0009437421
UncalAccel,1719891459843,95781549170558,0.8428718,8.7266245,4.5684967,0.0,0.0,0.0
OrientationDeg,1719891459843,95781549170558,166.0,-10.0,-61.0
UncalMag,1719891459846,95781552838839,80.45625,-46.125,-55.3875,85.73942,4.7565236,-45.71802
UncalGyro,1719891459853,95781559161704,0.07150582,0.022636853,0.0047936863,0.0025561561,-0.00061385153,0.0009437421
UncalAccel,1719891459853,95781559161704,0.8811569,8.678768,4.511069,0.0,0.0,0.0
OrientationDeg,1719891459853,95781559161704,166.0,-10.0,-61.0
UncalMag,1719891459856,95781562838839,80.7375,-46.331253,-55.406254,85.73942,4.7565236,-45.71802
UncalGyro,1719891459863,95781569152954,0.055526868,0.014114743,-0.0015978955,0.0025561561,-0.00061385153,0.0009437421
UncalAccel,1719891459863,95781569152954,0.9242278,8.69791,4.4632125,0.0,0.0,0.0
OrientationDeg,1719891459863,95781569152954,166.0,-10.0,-61.0
UncalMag,1719891459866,95781572838839,80.925,-46.59375,-55.29375,85.73942,4.7565236,-45.71802
UncalGyro,1719891459873,95781579144100,0.03315633,0.006657898,-0.006924214,0.0025561561,-0.00061385153,0.0009437421
UncalAccel,1719891459873,95781579144100,0.9290134,8.702696,4.453641,0.0,0.0,0.0
OrientationDeg,1719891459873,95781579144100,166.0,-10.0,-61.0
UncalMag,1719891459876,95781582838839,80.9625,-46.518753,-55.29375,85.73942,4.7565236,-45.71802
UncalGyro,1719891459883,95781589135298,0.0075900033,-0.008122635,-0.011185268,0.0025561561,-0.00061385153,0.0009437421
UncalAccel,1719891459883,95781589135298,0.91465646,8.678768,4.44407,0.0,0.0,0.0
OrientationDeg,1719891459883,95781589135298,166.0,-10.0,-61.0
UncalMag,1719891459886,95781592838839,80.775,-46.725002,-55.0875,85.73942,4.7565236,-45.71802
UncalGyro,1719891459893,95781599126444,-0.0126500055,-0.018775271,-0.016511586,0.0025561561,-0.00061385153,0.0009437421
UncalAccel,1719891459893,95781599126444,0.89072824,8.688339,4.4201417,0.0,0.0,0.0
OrientationDeg,1719891459893,95781599126444,166.0,-10.0,-61.0
UncalMag,1719891459896,95781602838839,80.775,-46.4625,-55.0125,85.73942,4.7565236,-45.71802
UncalGyro,1719891459903,95781609117694,-0.027563697,-0.013448954,-0.014381059,0.0025561561,-0.00061385153,0.0009437421
UncalAccel,1719891459903,95781609117694,0.8811569,8.707481,4.4488554,0.0,0.0,0.0
OrientationDeg,1719891459903,95781609117694,166.0,-10.0,-61.0
UncalMag,1719891459906,95781612838839,80.68125,-46.537502,-54.693752,85.73942,4.7565236,-45.71802
UncalGyro,1719891459913,95781619108839,-0.03502054,0.0023968432,-0.010120004,0.0025561561,-0.00061385153,0.0009437421
UncalAccel,1719891459913,95781619108839,0.85244304,8.69791,4.525426,0.0,0.0,0.0
OrientationDeg,1719891459913,95781619108839,166.0,-10.0,-61.0
UncalMag,1719891459916,95781622838839,80.4,-46.40625,-54.80625,85.73942,4.7565236,-45.71802
UncalGyro,1719891459923,95781629100089,-0.036085807,0.005592634,-0.006924214,0.0025561561,-0.00061385153,0.0009437421
UncalAccel,1719891459923,95781629100089,0.8428718,8.688339,4.6354957,0.0,0.0,0.0
UncalMag,1719891459926,95781632838839,80.5875,-46.2,-54.787502,85.73942,4.7565236,-45.71802
OrientationDeg,1719891459923,95781629100089,166.0,-10.0,-61.0
UncalGyro,1719891459933,95781639091235,-0.03715107,-0.00066578976,-0.006924214,0.0025561561,-0.00061385153,0.0009437421
UncalAccel,1719891459933,95781639091235,0.8285148,8.678768,4.6785665,0.0,0.0,0.0
OrientationDeg,1719891459933,95781639091235,166.0,-10.0,-61.0
UncalMag,1719891459936,95781642838839,80.287506,-45.75,-54.91875,85.73942,4.7565236,-45.71802
UncalAccel,1719891459943,95781649082433,0.80937225,8.69791,4.6450667,0.0,0.0,0.0
UncalGyro,1719891459943,95781649082433,-0.041412123,-0.0049268445,-0.0047936863,0.0025561561,-0.00061385153,0.0009437421
OrientationDeg,1719891459943,95781649082433,166.0,-10.0,-61.0
UncalMag,1719891459946,95781652838839,80.0625,-45.675003,-54.975002,85.73942,4.7565236,-45.71802
UncalGyro,1719891459953,95781659073579,-0.047803707,-0.0070573715,-0.0015978955,0.0025561561,-0.00061385153,0.0009437421
UncalAccel,1719891459953,95781659073579,0.85244304,8.740981,4.63071,0.0,0.0,0.0
OrientationDeg,1719891459953,95781659073579,166.0,-10.0,-61.0
UncalMag,1719891459956,95781662838839,79.818756,-45.73125,-54.656254,85.73942,4.7565236,-45.71802
UncalGyro,1719891459963,95781669064829,-0.050999496,-0.0049268445,0.0015978955,0.0025561561,-0.00061385153,0.0009437421
UncalAccel,1719891459963,95781669064829,0.8572287,8.707481,4.6785665,0.0,0.0,0.0
OrientationDeg,1719891459963,95781669064829,166.0,-10.0,-61.0
UncalMag,1719891459966,95781672838839,79.8375,-45.46875,-54.581253,85.73942,4.7565236,-45.71802
UncalGyro,1719891459973,95781679055975,-0.04567318,-0.010253162,0.0037284228,0.0025561561,-0.00061385153,0.0009437421
UncalAccel,1719891459973,95781679055975,0.85244304,8.659625,4.731209,0.0,0.0,0.0
OrientationDeg,1719891459973,95781679055975,166.0,-10.0,-61.0
UncalMag,1719891459976,95781682838839,80.0625,-45.825,-54.54375,85.73942,4.7565236,-45.71802
UncalGyro,1719891459983,95781689047173,-0.032890014,-0.020905798,0.0005326318,0.0025561561,-0.00061385153,0.0009437421
UncalAccel,1719891459983,95781689047173,0.799801,8.6548395,4.788636,0.0,0.0,0.0
OrientationDeg,1719891459983,95781689047173,166.0,-10.0,-61.0
UncalMag,1719891459986,95781692838839,79.96875,-45.768753,-54.956253,85.73942,4.7565236,-45.71802
UncalGyro,1719891459993,95781699038319,-0.014780533,-0.031558435,0.0047936863,0.0025561561,-0.00061385153,0.0009437421
UncalAccel,1719891459993,95781699038319,0.78065836,8.673982,4.7694936,0.0,0.0,0.0
OrientationDeg,1719891459993,95781699038319,166.0,-10.0,-61.0
UncalMag,1719891459996,95781702838839,80.025,-45.9,-55.143753,85.73942,4.7565236,-45.71802
UncalGyro,1719891460003,95781709029569,0.013981585,-0.025166854,0.009054741,0.0025561561,-0.00061385153,0.0009437421
UncalAccel,1719891460003,95781709029569,0.8045866,8.683554,4.74078,0.0,0.0,0.0
OrientationDeg,1719891460003,95781709029569,166.0,-10.0,-61.0
UncalMag,1719891460006,95781712838839,79.96875,-45.91875,-54.9,85.73942,4.7565236,-45.71802
UncalGyro,1719891460014,95781719020714,0.042743705,-0.015579481,0.014381059,0.0025561561,-0.00061385153,0.0009437421
UncalAccel,1719891460013,95781719020714,0.8572287,8.717052,4.601996,0.0,0.0,0.0
OrientationDeg,1719891460013,95781719020714,166.0,-10.0,-61.0
UncalMag,1719891460016,95781722838839,80.175,-46.0875,-54.843754,85.73942,4.7565236,-45.71802
UncalGyro,1719891460023,95781729011964,0.05659213,-0.0070573715,0.016511586,0.0025561561,-0.00061385153,0.0009437421
UncalAccel,1719891460023,95781729011964,0.90508515,8.688339,4.453641,0.0,0.0,0.0
OrientationDeg,1719891460023,95781729011964,166.0,-10.0,-61.0
UncalMag,1719891460026,95781732838839,80.175,-46.0875,-55.031254,85.73942,4.7565236,-45.71802
UncalGyro,1719891460033,95781739003110,0.051265813,0.0077231615,0.013315796,0.0025561561,-0.00061385153,0.0009437421
UncalAccel,1719891460033,95781739003110,0.9816555,8.650054,4.386642,0.0,0.0,0.0
OrientationDeg,1719891460033,95781739003110,166.0,-10.0,-61.0
UncalMag,1719891460036,95781742838839,80.49375,-45.91875,-55.031254,85.73942,4.7565236,-45.71802
UncalGyro,1719891460042,95781748994308,0.03315633,0.020506324,0.0005326318,0.0025561561,-0.00061385153,0.0009437421
UncalAccel,1719891460042,95781748994308,0.9529416,8.616554,4.4488554,0.0,0.0,0.0
OrientationDeg,1719891460042,95781748994308,166.0,-10.0,-61.0
UncalMag,1719891460046,95781752838839,80.53125,-45.75,-55.125004,85.73942,4.7565236,-45.71802
UncalGyro,1719891460052,95781758985454,0.00972053,0.009853689,-0.011185268,0.0025561561,-0.00061385153,0.0009437421
UncalAccel,1719891460052,95781758985454,0.8955139,8.669196,4.4871407,0.0,0.0,0.0
OrientationDeg,1719891460052,95781758985454,166.0,-10.0,-61.0
UncalMag,1719891460056,95781762838839,80.4375,-45.675003,-55.312504,85.73942,4.7565236,-45.71802
UncalGyro,1719891460062,95781768976704,-0.013715269,-0.013448954,-0.013315796,0.0025561561,-0.00061385153,0.0009437421
UncalAccel,1719891460062,95781768976704,0.84765744,8.707481,4.5206404,0.0,0.0,0.0
UncalMag,1719891460066,95781772838839,80.568756,-45.600002,-54.937504,85.73942,4.7565236,-45.71802
OrientationDeg,1719891460062,95781768976704,166.0,-10.0,-61.0
UncalGyro,1719891460072,95781778967850,-0.031824753,-0.028362645,-0.007989477,0.0025561561,-0.00061385153,0.0009437421
UncalAccel,1719891460072,95781778967850,0.799801,8.721839,4.467998,0.0,0.0,0.0
OrientationDeg,1719891460072,95781778967850,166.0,-10.0,-61.0
UncalMag,1719891460076,95781782838839,80.756256,-45.525,-54.825,85.73942,4.7565236,-45.71802
UncalGyro,1719891460082,95781788959048,-0.042477388,-0.028362645,-0.0047936863,0.0025561561,-0.00061385153,0.0009437421
UncalAccel,1719891460082,95781788959048,0.80937225,8.69791,4.4392843,0.0,0.0,0.0
OrientationDeg,1719891460082,95781788959048,166.0,-10.0,-61.0
UncalGyro,1719891460092,95781798950194,-0.049934234,-0.018775271,-0.00585895,0.0025561561,-0.00061385153,0.0009437421
UncalAccel,1719891460092,95781798950194,0.8285148,8.669196,4.4727836,0.0,0.0,0.0
UncalMag,1719891460086,95781792838839,80.850006,-45.5625,-55.162502,85.73942,4.7565236,-45.71802
OrientationDeg,1719891460092,95781798950194,166.0,-10.0,-61.0
UncalMag,1719891460096,95781802838839,80.850006,-45.73125,-55.10625,85.73942,4.7565236,-45.71802
UncalGyro,1719891460102,95781808941444,-0.057391077,-0.016644744,-0.00585895,0.0025561561,-0.00061385153,0.0009437421
UncalAccel,1719891460102,95781808941444,0.8380861,8.659625,4.5445685,0.0,0.0,0.0
OrientationDeg,1719891460102,95781808941444,166.0,-10.0,-61.0
UncalMag,1719891460106,95781812838839,80.887505,-45.581253,-55.0125,85.73942,4.7565236,-45.71802
UncalGyro,1719891460112,95781818932589,-0.065913185,-0.025166854,-0.002663159,0.0025561561,-0.00061385153,0.0009437421
UncalAccel,1719891460112,95781818932589,0.8859426,8.645268,4.5732822,0.0,0.0,0.0
UncalMag,1719891460116,95781822838839,80.793755,-45.61875,-55.29375,85.73942,4.7565236,-45.71802
OrientationDeg,1719891460112,95781818932589,166.0,-10.0,-61.0
UncalGyro,1719891460122,95781828923787,-0.07017424,-0.04114581,-0.006924214,0.0025561561,-0.00061385153,0.0009437421
UncalAccel,1719891460122,95781828923787,0.86201435,8.630911,4.578068,0.0,0.0,0.0
OrientationDeg,1719891460122,95781828923787,166.0,-10.0,-61.0
UncalMag,1719891460126,95781832838839,80.887505,-45.881252,-55.29375,85.73942,4.7565236,-45.71802
UncalGyro,1719891460132,95781838914933,-0.07550056,-0.0560595,-0.009054741,0.0025561561,-0.00061385153,0.0009437421
UncalAccel,1719891460132,95781838914933,0.8333005,8.669196,4.5732822,0.0,0.0,0.0
OrientationDeg,1719891460132,95781838914933,166.0,-10.0,-61.0
UncalMag,1719891460136,95781842838839,80.850006,-45.787502,-55.143753,85.73942,4.7565236,-45.71802
UncalGyro,1719891460142,95781848906183,-0.08402267,-0.060320552,-0.00585895,0.0025561561,-0.00061385153,0.0009437421
UncalAccel,1719891460142,95781848906183,0.8141579,8.659625,4.534997,0.0,0.0,0.0
OrientationDeg,1719891460142,95781848906183,166.0,-10.0,-61.0
UncalMag,1719891460146,95781852838839,80.86875,-46.050003,-55.350002,85.73942,4.7565236,-45.71802
